% program   : RTKLIB ver.demo5 b34g
% inp file  : ../example/hkws0010.21o
% inp file  : ../example/brdm0010.21p
% obs start : 2021/01/01 00:00:00.0 GPST (week2138 432000.0s)
% obs end   : 2021/01/01 23:59:30.0 GPST (week2138 518370.0s)
% pos mode  : Single
% elev mask : 15.0 deg
% ionos opt : Broadcast
% tropo opt : Saastamoinen
% ephemeris : Broadcast
% navi sys  : GPS GLONASS Galileo BDS
%
% (x/y/z-ecef=WGS84,Q=1:fix,2:float,3:sbas,4:dgps,5:single,6:ppp,ns=# of satellites)
%  GPST                      x-ecef(m)      y-ecef(m)      z-ecef(m)   Q  ns   sdx(m)   sdy(m)   sdz(m)  sdxy(m)  sdyz(m)  sdzx(m) age(s)  ratio
2021/01/01 00:00:00.000  -2430579.4117   5374285.6902   2418956.6216   5  28   1.6894   2.7644   2.0453  -1.7149   1.7432  -1.2086   0.00    0.0
2021/01/01 00:00:30.000  -2430579.4228   5374285.5918   2418956.6686   5  28   1.6906   2.7618   2.0415  -1.7146   1.7398  -1.2068   0.00    0.0
2021/01/01 00:01:00.000  -2430579.3784   5374285.3752   2418956.7144   5  28   1.6920   2.7599   2.0381  -1.7141   1.7371  -1.2048   0.00    0.0
2021/01/01 00:01:30.000  -2430579.3558   5374285.3101   2418956.7639   5  28   1.6933   2.7573   2.0343  -1.7137   1.7337  -1.2028   0.00    0.0
2021/01/01 00:02:00.000  -2430579.2997   5374285.3977   2418956.8456   5  28   1.6945   2.7546   2.0305  -1.7133   1.7302  -1.2009   0.00    0.0
2021/01/01 00:02:30.000  -2430579.2676   5374285.4767   2418956.9130   5  28   1.6958   2.7519   2.0266  -1.7129   1.7267  -1.1989   0.00    0.0
2021/01/01 00:03:00.000  -2430579.2789   5374285.4854   2418956.9019   5  28   1.6970   2.7491   2.0227  -1.7124   1.7230  -1.1968   0.00    0.0
2021/01/01 00:03:30.000  -2430579.3123   5374285.5174   2418956.8559   5  28   1.6983   2.7462   2.0187  -1.7119   1.7193  -1.1947   0.00    0.0
2021/01/01 00:04:00.000  -2430579.2859   5374285.4207   2418956.7963   5  28   1.6995   2.7433   2.0147  -1.7114   1.7155  -1.1925   0.00    0.0
2021/01/01 00:04:30.000  -2430579.2296   5374285.2658   2418956.6491   5  28   1.7007   2.7403   2.0107  -1.7108   1.7117  -1.1903   0.00    0.0
2021/01/01 00:05:00.000  -2430579.1805   5374285.1357   2418956.4832   5  28   1.7020   2.7382   2.0071  -1.7099   1.7087  -1.1877   0.00    0.0
2021/01/01 00:05:30.000  -2430579.2819   5374285.2215   2418956.5765   5  29   1.6802   2.7107   2.0030  -1.6791   1.7042  -1.1848   0.00    0.0
2021/01/01 00:06:00.000  -2430579.3488   5374285.3386   2418956.6911   5  29   1.6816   2.7103   1.9990  -1.6789   1.7009  -1.1827   0.00    0.0
2021/01/01 00:06:30.000  -2430579.3723   5374285.4113   2418956.7757   5  29   1.6830   2.7081   1.9949  -1.6787   1.6971  -1.1805   0.00    0.0
2021/01/01 00:07:00.000  -2430579.4076   5374285.4210   2418956.8125   5  29   1.6844   2.7057   1.9907  -1.6784   1.6933  -1.1783   0.00    0.0
2021/01/01 00:07:30.000  -2430579.3973   5374285.5336   2418956.7859   5  29   1.6858   2.7034   1.9865  -1.6781   1.6894  -1.1760   0.00    0.0
2021/01/01 00:08:00.000  -2430579.3133   5374285.5957   2418956.8050   5  29   1.6871   2.7009   1.9822  -1.6777   1.6854  -1.1737   0.00    0.0
2021/01/01 00:08:30.000  -2430579.2701   5374285.5655   2418956.7526   5  29   1.6885   2.6985   1.9780  -1.6774   1.6814  -1.1713   0.00    0.0
2021/01/01 00:09:00.000  -2430579.3337   5374285.5984   2418956.7724   5  29   1.6899   2.6959   1.9737  -1.6770   1.6773  -1.1689   0.00    0.0
2021/01/01 00:09:30.000  -2430579.4130   5374285.6534   2418956.7476   5  29   1.6913   2.6934   1.9694  -1.6765   1.6731  -1.1665   0.00    0.0
2021/01/01 00:10:00.000  -2430579.4252   5374285.5425   2418956.6665   5  29   1.6927   2.6908   1.9650  -1.6761   1.6689  -1.1640   0.00    0.0
2021/01/01 00:10:30.000  -2430579.3421   5374285.4465   2418956.6086   5  29   1.6941   2.6883   1.9606  -1.6756   1.6646  -1.1615   0.00    0.0
2021/01/01 00:11:00.000  -2430579.1695   5374285.2981   2418956.6160   5  29   1.6955   2.6856   1.9562  -1.6750   1.6603  -1.1589   0.00    0.0
2021/01/01 00:11:30.000  -2430579.0675   5374285.2697   2418956.6968   5  29   1.6968   2.6829   1.9518  -1.6745   1.6560  -1.1563   0.00    0.0
2021/01/01 00:12:00.000  -2430579.0840   5374285.2764   2418956.9007   5  29   1.6982   2.6802   1.9474  -1.6740   1.6515  -1.1537   0.00    0.0
2021/01/01 00:12:30.000  -2430579.1436   5374285.3602   2418957.0209   5  29   1.6996   2.6775   1.9429  -1.6734   1.6471  -1.1510   0.00    0.0
2021/01/01 00:13:00.000  -2430579.2243   5374285.4965   2418956.9712   5  29   1.7010   2.6747   1.9385  -1.6728   1.6426  -1.1483   0.00    0.0
2021/01/01 00:13:30.000  -2430579.4054   5374285.4700   2418956.8199   5  29   1.7026   2.6719   1.9341  -1.6721   1.6381  -1.1453   0.00    0.0
2021/01/01 00:14:00.000  -2430579.5654   5374285.3990   2418956.8473   5  29   1.7040   2.6691   1.9296  -1.6714   1.6335  -1.1425   0.00    0.0
2021/01/01 00:14:30.000  -2430579.5666   5374285.4009   2418956.9541   5  29   1.7054   2.6662   1.9251  -1.6708   1.6288  -1.1397   0.00    0.0
2021/01/01 00:15:00.000  -2430579.6162   5374285.5702   2418957.0969   5  29   1.7069   2.6633   1.9206  -1.6701   1.6242  -1.1368   0.00    0.0
2021/01/01 00:15:30.000  -2430974.7648   5367887.7886   2401783.3043   5  30   1.5876   2.4607   1.7059  -1.5720   1.4700  -1.0579   0.00    0.0
2021/01/01 00:16:00.000  -2431111.6261   5368064.0365   2401838.9344   5  30   1.5889   2.4578   1.7023  -1.5715   1.4662  -1.0558   0.00    0.0
2021/01/01 00:16:30.000  -2431250.8984   5368243.4364   2401896.8122   5  30   1.5902   2.4549   1.6986  -1.5711   1.4624  -1.0537   0.00    0.0
2021/01/01 00:17:00.000  -2431392.5543   5368425.8569   2401956.8893   5  30   1.5914   2.4519   1.6949  -1.5706   1.4585  -1.0516   0.00    0.0
2021/01/01 00:18:00.000  -2431860.4993   5367182.4481   2402240.8544   5  29   1.5945   2.4688   1.6879  -1.5657   1.4470  -1.0479   0.00    0.0
2021/01/01 00:18:30.000  -2432010.7756   5367359.1817   2402302.4526   5  29   1.5957   2.4658   1.6842  -1.5652   1.4431  -1.0457   0.00    0.0
2021/01/01 00:19:00.000  -2432163.3486   5367538.9360   2402365.8761   5  29   1.5969   2.4628   1.6804  -1.5645   1.4392  -1.0434   0.00    0.0
2021/01/01 00:19:30.000  -2432318.2871   5367721.6806   2402431.2009   5  29   1.5982   2.4598   1.6767  -1.5639   1.4353  -1.0411   0.00    0.0
2021/01/01 00:20:00.000  -2432475.4810   5367907.3289   2402498.2477   5  29   1.5994   2.4567   1.6729  -1.5632   1.4313  -1.0387   0.00    0.0
2021/01/01 00:20:30.000  -2432635.0664   5368095.8375   2402567.0466   5  29   1.6006   2.4536   1.6692  -1.5625   1.4273  -1.0363   0.00    0.0
2021/01/01 00:21:00.000  -2432796.7836   5368286.8731   2402637.3551   5  29   1.6018   2.4504   1.6654  -1.5618   1.4233  -1.0339   0.00    0.0
2021/01/01 00:21:30.000  -2433197.5412   5366103.4808   2403001.8128   5  28   1.6036   2.4795   1.6625  -1.5562   1.4124  -1.0326   0.00    0.0
2021/01/01 00:22:00.000  -2433355.7888   5366285.4851   2403078.7695   5  28   1.6048   2.4764   1.6587  -1.5556   1.4082  -1.0301   0.00    0.0
2021/01/01 00:22:30.000  -2433516.1156   5366470.2331   2403157.2489   5  28   1.6059   2.4734   1.6550  -1.5550   1.4040  -1.0275   0.00    0.0
2021/01/01 00:23:00.000  -2433678.5152   5366657.7352   2403237.2314   5  28   1.6071   2.4703   1.6512  -1.5543   1.3997  -1.0250   0.00    0.0
2021/01/01 00:23:30.000  -2433842.9750   5366847.8395   2403318.6899   5  28   1.6082   2.4672   1.6475  -1.5537   1.3955  -1.0224   0.00    0.0
2021/01/01 00:24:00.000  -2434009.3430   5367040.5426   2403401.4342   5  28   1.6094   2.4641   1.6437  -1.5530   1.3911  -1.0198   0.00    0.0
2021/01/01 00:24:30.000  -2434177.6592   5367235.5220   2403485.2956   5  28   1.6105   2.4610   1.6400  -1.5523   1.3868  -1.0172   0.00    0.0
2021/01/01 00:25:00.000  -2434348.1072   5367432.7994   2403570.4222   5  28   1.6117   2.4579   1.6362  -1.5516   1.3824  -1.0145   0.00    0.0
2021/01/01 00:25:30.000  -2434520.5515   5367632.4875   2403656.7663   5  28   1.6128   2.4547   1.6325  -1.5509   1.3781  -1.0118   0.00    0.0
2021/01/01 00:26:00.000  -2434694.8211   5367834.2511   2403744.1917   5  28   1.6140   2.4515   1.6287  -1.5501   1.3736  -1.0091   0.00    0.0
2021/01/01 00:26:30.000  -2434871.0340   5368038.3238   2403832.6703   5  28   1.6151   2.4483   1.6250  -1.5493   1.3692  -1.0064   0.00    0.0
2021/01/01 00:27:00.000  -2435049.0968   5368244.5750   2403922.1407   5  28   1.6162   2.4451   1.6213  -1.5486   1.3648  -1.0036   0.00    0.0
2021/01/01 00:27:30.000  -2435229.1763   5368453.1589   2404012.6669   5  28   1.6174   2.4419   1.6175  -1.5478   1.3603  -1.0008   0.00    0.0
2021/01/01 00:28:00.000  -2435411.2139   5368663.9487   2404104.3494   5  28   1.6185   2.4387   1.6138  -1.5470   1.3558  -0.9980   0.00    0.0
2021/01/01 00:28:30.000  -2435595.0690   5368876.6808   2404196.9833   5  28   1.6197   2.4355   1.6101  -1.5461   1.3513  -0.9952   0.00    0.0
2021/01/01 00:29:00.000  -2435780.7154   5369091.2961   2404290.4791   5  28   1.6208   2.4323   1.6064  -1.5453   1.3468  -0.9923   0.00    0.0
2021/01/01 00:29:30.000  -2435968.1234   5369307.8321   2404384.6670   5  28   1.6219   2.4290   1.6027  -1.5445   1.3422  -0.9895   0.00    0.0
2021/01/01 00:30:00.000  -2436157.2151   5369526.1068   2404479.5290   5  28   1.6231   2.4258   1.5990  -1.5436   1.3377  -0.9866   0.00    0.0
2021/01/01 00:30:30.000  -2430579.7829   5374285.6366   2418957.0283   5  28   1.7544   2.6570   1.7390  -1.6436   1.4588  -1.0683   0.00    0.0
2021/01/01 00:31:00.000  -2430579.8041   5374285.6767   2418956.9803   5  28   1.7560   2.6549   1.7360  -1.6431   1.4549  -1.0657   0.00    0.0
2021/01/01 00:31:30.000  -2430579.8458   5374285.7715   2418956.9669   5  28   1.7583   2.6531   1.7358  -1.6433   1.4522  -1.0655   0.00    0.0
2021/01/01 00:32:00.000  -2430579.8329   5374285.8182   2418956.9369   5  28   1.7600   2.6516   1.7332  -1.6431   1.4488  -1.0633   0.00    0.0
2021/01/01 00:32:30.000  -2430579.9018   5374285.9503   2418957.0109   5  28   1.7617   2.6497   1.7305  -1.6427   1.4451  -1.0609   0.00    0.0
2021/01/01 00:33:00.000  -2430579.9608   5374286.0966   2418957.0321   5  28   1.7635   2.6479   1.7279  -1.6423   1.4413  -1.0587   0.00    0.0
2021/01/01 00:33:30.000  -2430579.9263   5374285.9716   2418956.9882   5  28   1.7652   2.6460   1.7252  -1.6419   1.4376  -1.0563   0.00    0.0
2021/01/01 00:34:00.000  -2430579.8255   5374285.7869   2418957.0433   5  28   1.7669   2.6442   1.7226  -1.6416   1.4339  -1.0539   0.00    0.0
2021/01/01 00:34:30.000  -2430579.7407   5374285.6619   2418957.0621   5  28   1.7686   2.6424   1.7203  -1.6414   1.4299  -1.0513   0.00    0.0
2021/01/01 00:35:00.000  -2430579.7057   5374285.5533   2418957.0734   5  29   1.5860   2.4808   1.7051  -1.4077   1.3586  -0.9678   0.00    0.0
2021/01/01 00:35:30.000  -2430579.6934   5374285.5599   2418957.1617   5  29   1.5877   2.4794   1.7029  -1.4075   1.3560  -0.9665   0.00    0.0
2021/01/01 00:36:00.000  -2430579.5563   5374285.5642   2418957.2249   5  29   1.5894   2.4780   1.7008  -1.4074   1.3534  -0.9653   0.00    0.0
2021/01/01 00:36:30.000  -2430579.6218   5374285.6600   2418957.3812   5  29   1.5911   2.4765   1.6987  -1.4073   1.3507  -0.9640   0.00    0.0
2021/01/01 00:37:00.000  -2430579.6784   5374285.8158   2418957.5085   5  29   1.5928   2.4751   1.6966  -1.4071   1.3481  -0.9628   0.00    0.0
2021/01/01 00:37:30.000  -2430579.7871   5374285.9721   2418957.5189   5  29   1.5945   2.4738   1.6945  -1.4070   1.3455  -0.9615   0.00    0.0
2021/01/01 00:38:00.000  -2430579.7653   5374285.9210   2418957.4139   5  29   1.5963   2.4724   1.6925  -1.4069   1.3429  -0.9602   0.00    0.0
2021/01/01 00:38:30.000  -2430579.8247   5374286.2814   2418957.3280   5  28   1.5997   2.6565   1.6914  -1.4317   1.3609  -0.9611   0.00    0.0
2021/01/01 00:39:00.000  -2430579.8048   5374286.2053   2418957.3264   5  28   1.6015   2.6560   1.6895  -1.4322   1.3593  -0.9599   0.00    0.0
2021/01/01 00:39:30.000  -2430579.8087   5374286.1888   2418957.4007   5  28   1.6033   2.6554   1.6875  -1.4328   1.3577  -0.9588   0.00    0.0
2021/01/01 00:40:00.000  -2430579.7691   5374286.2388   2418957.4327   5  28   1.6053   2.6549   1.6857  -1.4334   1.3559  -0.9574   0.00    0.0
2021/01/01 00:40:30.000  -2430579.8015   5374286.1467   2418957.4953   5  28   1.6072   2.6544   1.6838  -1.4339   1.3543  -0.9563   0.00    0.0
2021/01/01 00:41:00.000  -2430579.9351   5374286.2876   2418957.5504   5  28   1.6091   2.6538   1.6820  -1.4345   1.3527  -0.9551   0.00    0.0
2021/01/01 00:41:30.000  -2430579.9674   5374286.3871   2418957.5623   5  28   1.6112   2.6533   1.6802  -1.4353   1.3509  -0.9537   0.00    0.0
2021/01/01 00:42:00.000  -2430579.9289   5374286.3608   2418957.5157   5  28   1.6132   2.6528   1.6784  -1.4358   1.3493  -0.9525   0.00    0.0
2021/01/01 00:42:30.000  -2430579.9065   5374286.3206   2418957.4386   5  28   1.6151   2.6522   1.6766  -1.4364   1.3477  -0.9513   0.00    0.0
2021/01/01 00:43:00.000  -2430579.8591   5374286.1927   2418957.4521   5  28   1.6171   2.6517   1.6749  -1.4370   1.3461  -0.9501   0.00    0.0
2021/01/01 00:43:30.000  -2430579.8125   5374286.0262   2418957.4180   5  28   1.6190   2.6511   1.6731  -1.4376   1.3445  -0.9489   0.00    0.0
2021/01/01 00:44:00.000  -2430579.8580   5374286.0077   2418957.3729   5  28   1.6210   2.6506   1.6714  -1.4382   1.3429  -0.9477   0.00    0.0
2021/01/01 00:44:30.000  -2430579.9257   5374286.1976   2418957.3371   5  28   1.6230   2.6500   1.6697  -1.4388   1.3414  -0.9465   0.00    0.0
2021/01/01 00:45:00.000  -2430579.9404   5374286.2601   2418957.3502   5  28   1.6257   2.6496   1.6681  -1.4398   1.3399  -0.9457   0.00    0.0
2021/01/01 00:45:30.000  -2430580.0344   5374286.3142   2418957.4506   5  28   1.6278   2.6490   1.6664  -1.4404   1.3384  -0.9445   0.00    0.0
2021/01/01 00:46:00.000  -2430580.0709   5374286.2826   2418957.5080   5  28   1.6299   2.6485   1.6648  -1.4411   1.3369  -0.9434   0.00    0.0
2021/01/01 00:46:30.000  -2430580.0730   5374285.2636   2418957.1070   5  27   1.6358   2.8534   1.7533  -1.3996   1.5406  -0.9085   0.00    0.0
2021/01/01 00:47:00.000  -2430580.0923   5374285.2034   2418957.1629   5  27   1.6378   2.8523   1.7522  -1.4009   1.5394  -0.9076   0.00    0.0
2021/01/01 00:47:30.000  -2430580.0291   5374285.2711   2418957.1905   5  26   1.7170   2.9634   2.1451  -1.5418   1.8348  -1.2053   0.00    0.0
2021/01/01 00:48:00.000  -2430579.8862   5374285.2267   2418957.1485   5  26   1.7192   2.9635   2.1436  -1.5438   1.8351  -1.2048   0.00    0.0
2021/01/01 00:48:30.000  -2430579.8244   5374285.2569   2418957.1614   5  26   1.7213   2.9635   2.1421  -1.5458   1.8352  -1.2043   0.00    0.0
2021/01/01 00:49:00.000  -2430579.8223   5374285.4399   2418957.1840   5  26   1.7251   2.9642   2.1415  -1.5493   1.8364  -1.2058   0.00    0.0
2021/01/01 00:49:30.000  -2430579.9049   5374285.5228   2418957.2315   5  26   1.7275   2.9643   2.1401  -1.5515   1.8366  -1.2053   0.00    0.0
2021/01/01 00:50:00.000  -2430580.0119   5374285.5300   2418957.2385   5  26   1.7298   2.9644   2.1386  -1.5536   1.8367  -1.2049   0.00    0.0
2021/01/01 00:50:30.000  -2430580.0630   5374285.5253   2418957.2796   5  26   1.7321   2.9644   2.1371  -1.5557   1.8368  -1.2045   0.00    0.0
2021/01/01 00:51:00.000  -2430580.1224   5374285.4690   2418957.1864   5  26   1.7344   2.9645   2.1355  -1.5578   1.8368  -1.2040   0.00    0.0
2021/01/01 00:51:30.000  -2430580.1058   5374285.4298   2418957.0854   5  26   1.7367   2.9645   2.1339  -1.5599   1.8368  -1.2035   0.00    0.0
2021/01/01 00:52:00.000  -2430580.0174   5374285.3772   2418956.9392   5  26   1.7390   2.9645   2.1323  -1.5619   1.8367  -1.2029   0.00    0.0
2021/01/01 00:52:30.000  -2430580.0344   5374285.3657   2418956.8737   5  26   1.7414   2.9645   2.1307  -1.5640   1.8366  -1.2023   0.00    0.0
2021/01/01 00:53:00.000  -2430580.0715   5374285.3308   2418956.8428   5  26   1.7437   2.9645   2.1290  -1.5660   1.8364  -1.2017   0.00    0.0
2021/01/01 00:53:30.000  -2430580.0341   5374285.2567   2418956.8035   5  26   1.7460   2.9645   2.1273  -1.5681   1.8363  -1.2011   0.00    0.0
2021/01/01 00:54:00.000  -2430580.0347   5374285.1615   2418956.8717   5  26   1.7484   2.9645   2.1256  -1.5701   1.8360  -1.2005   0.00    0.0
2021/01/01 00:54:30.000  -2430580.0872   5374285.2292   2418957.0733   5  26   1.7507   2.9644   2.1238  -1.5721   1.8358  -1.1998   0.00    0.0
2021/01/01 00:55:00.000  -2430580.0512   5374285.4162   2418957.1890   5  26   1.7530   2.9643   2.1220  -1.5741   1.8354  -1.1991   0.00    0.0
2021/01/01 00:55:30.000  -2430580.0430   5374285.5753   2418957.3593   5  26   1.7554   2.9643   2.1202  -1.5760   1.8351  -1.1984   0.00    0.0
2021/01/01 00:56:00.000  -2430579.7068   5374285.1628   2418957.2790   5  27   1.6036   2.7993   2.0739  -1.3374   1.7161  -1.0599   0.00    0.0
2021/01/01 00:56:30.000  -2430579.6763   5374285.2080   2418957.2567   5  27   1.6055   2.7996   2.0726  -1.3394   1.7165  -1.0597   0.00    0.0
2021/01/01 00:57:00.000  -2430579.6883   5374285.1997   2418957.2855   5  27   1.6075   2.7998   2.0712  -1.3414   1.7169  -1.0595   0.00    0.0
2021/01/01 00:57:30.000  -2430579.7241   5374285.2223   2418957.2781   5  27   1.6094   2.8000   2.0699  -1.3435   1.7173  -1.0593   0.00    0.0
2021/01/01 00:58:00.000  -2430579.7304   5374285.3373   2418957.3983   5  27   1.6114   2.8003   2.0685  -1.3455   1.7177  -1.0590   0.00    0.0
2021/01/01 00:58:30.000  -2430579.7247   5374285.3827   2418957.3886   5  27   1.6133   2.8005   2.0671  -1.3476   1.7180  -1.0588   0.00    0.0
2021/01/01 00:59:00.000  -2430579.6595   5374285.3791   2418957.3561   5  27   1.6153   2.8008   2.0657  -1.3497   1.7183  -1.0586   0.00    0.0
2021/01/01 00:59:30.000  -2430579.7222   5374285.6134   2418957.3994   5  27   1.6173   2.8011   2.0643  -1.3518   1.7186  -1.0583   0.00    0.0
2021/01/01 01:00:00.000  -2430579.8473   5374285.8103   2418957.4589   5  27   1.6193   2.8013   2.0628  -1.3538   1.7189  -1.0580   0.00    0.0
2021/01/01 01:00:30.000  -2430580.0999   5374285.8526   2418957.5915   5  27   1.6226   2.8027   2.0614  -1.3578   1.7192  -1.0579   0.00    0.0
2021/01/01 01:01:00.000  -2430580.2172   5374285.7950   2418957.7153   5  27   1.6248   2.8031   2.0599  -1.3601   1.7194  -1.0576   0.00    0.0
2021/01/01 01:01:30.000  -2430580.2241   5374285.7049   2418957.7269   5  27   1.6270   2.8035   2.0584  -1.3624   1.7196  -1.0574   0.00    0.0
2021/01/01 01:02:00.000  -2430580.0978   5374285.5554   2418957.5568   5  27   1.6292   2.8039   2.0569  -1.3647   1.7198  -1.0571   0.00    0.0
2021/01/01 01:02:30.000  -2430579.9845   5374285.5834   2418957.5006   5  27   1.6328   2.8058   2.0557  -1.3693   1.7209  -1.0579   0.00    0.0
2021/01/01 01:03:00.000  -2430579.8507   5374285.6219   2418957.4576   5  27   1.6352   2.8064   2.0542  -1.3719   1.7211  -1.0578   0.00    0.0
2021/01/01 01:03:30.000  -2430579.8166   5374285.7576   2418957.4021   5  26   1.6376   3.2792   2.0558  -1.3711   1.7762  -1.0573   0.00    0.0
2021/01/01 01:04:00.000  -2430579.8907   5374285.8407   2418957.4093   5  26   1.6400   3.2792   2.0543  -1.3760   1.7772  -1.0573   0.00    0.0
2021/01/01 01:04:30.000  -2430579.8637   5374285.9062   2418957.3889   5  26   1.6425   3.2792   2.0529  -1.3808   1.7782  -1.0574   0.00    0.0
2021/01/01 01:05:00.000  -2430579.9298   5374286.0619   2418957.4123   5  26   1.6449   3.2792   2.0514  -1.3857   1.7792  -1.0574   0.00    0.0
2021/01/01 01:05:30.000  -2430579.9997   5374286.2814   2418957.4346   5  26   1.6474   3.2793   2.0499  -1.3905   1.7801  -1.0574   0.00    0.0
2021/01/01 01:06:00.000  -2430580.0703   5374286.3154   2418957.4307   5  26   1.6499   3.2794   2.0484  -1.3954   1.7810  -1.0573   0.00    0.0
2021/01/01 01:06:30.000  -2430580.1412   5374286.3076   2418957.3860   5  26   1.6524   3.2795   2.0469  -1.4002   1.7819  -1.0573   0.00    0.0
2021/01/01 01:07:00.000  -2430580.1664   5374286.2140   2418957.3624   5  26   1.6549   3.2796   2.0454  -1.4050   1.7827  -1.0573   0.00    0.0
2021/01/01 01:07:30.000  -2430580.1361   5374286.0735   2418957.3643   5  26   1.6574   3.2797   2.0439  -1.4099   1.7836  -1.0573   0.00    0.0
2021/01/01 01:08:00.000  -2430580.0328   5374285.8529   2418957.1828   5  26   1.6600   3.2799   2.0423  -1.4147   1.7844  -1.0573   0.00    0.0
2021/01/01 01:08:30.000  -2430579.9515   5374285.6954   2418957.0923   5  26   1.6626   3.2801   2.0408  -1.4195   1.7852  -1.0573   0.00    0.0
2021/01/01 01:09:00.000  -2430579.9615   5374285.6171   2418957.1758   5  26   1.6651   3.2802   2.0392  -1.4243   1.7859  -1.0572   0.00    0.0
2021/01/01 01:09:30.000  -2430579.9702   5374285.6343   2418957.3239   5  26   1.6677   3.2805   2.0376  -1.4292   1.7867  -1.0572   0.00    0.0
2021/01/01 01:10:00.000  -2430579.9731   5374285.7509   2418957.5101   5  26   1.6704   3.2807   2.0360  -1.4340   1.7874  -1.0571   0.00    0.0
2021/01/01 01:10:30.000  -2430579.9837   5374285.9199   2418957.6597   5  26   1.6730   3.2809   2.0344  -1.4388   1.7881  -1.0571   0.00    0.0
2021/01/01 01:11:00.000  -2430579.8952   5374285.8756   2418957.6080   5  26   1.6756   3.2812   2.0328  -1.4436   1.7888  -1.0571   0.00    0.0
2021/01/01 01:11:30.000  -2430579.8523   5374285.8704   2418957.4554   5  26   1.6783   3.2815   2.0312  -1.4484   1.7894  -1.0570   0.00    0.0
2021/01/01 01:12:00.000  -2430579.8693   5374285.9689   2418957.3224   5  26   1.6810   3.2818   2.0295  -1.4532   1.7901  -1.0569   0.00    0.0
2021/01/01 01:12:30.000  -2430579.9622   5374286.2503   2418957.4271   5  27   1.6769   3.0983   1.7970  -1.4008   1.4795  -0.9875   0.00    0.0
2021/01/01 01:13:00.000  -2430579.9743   5374286.2304   2418957.4066   5  27   1.6797   3.0994   1.7962  -1.4061   1.4816  -0.9879   0.00    0.0
2021/01/01 01:13:30.000  -2430580.0029   5374286.2470   2418957.3635   5  27   1.6825   3.1006   1.7953  -1.4115   1.4837  -0.9882   0.00    0.0
2021/01/01 01:14:00.000  -2430580.0563   5374286.2050   2418957.3573   5  27   1.6853   3.1018   1.7944  -1.4168   1.4858  -0.9886   0.00    0.0
2021/01/01 01:14:30.000  -2430580.1059   5374286.0783   2418957.4722   5  27   1.6881   3.1030   1.7936  -1.4222   1.4879  -0.9890   0.00    0.0
2021/01/01 01:15:00.000  -2430580.2200   5374286.0602   2418957.7123   5  27   1.6909   3.1043   1.7927  -1.4275   1.4900  -0.9894   0.00    0.0
2021/01/01 01:15:30.000  -2430580.2499   5374286.6346   2418958.2768   5  28   1.6938   2.9818   1.6116  -1.4358   1.2435  -0.9937   0.00    0.0
2021/01/01 01:16:00.000  -2430580.0971   5374286.8104   2418958.2330   5  29   1.5587   2.9664   1.5377  -1.3656   1.1837  -0.8162   0.00    0.0
2021/01/01 01:16:30.000  -2430580.1649   5374287.0111   2418958.4729   5  28   1.5624   2.9682   1.5793  -1.3721   1.1956  -0.8322   0.00    0.0
2021/01/01 01:17:00.000  -2430580.2494   5374287.1861   2418958.4768   5  28   1.5647   2.9697   1.5798  -1.3773   1.1995  -0.8337   0.00    0.0
2021/01/01 01:17:30.000  -2430580.2981   5374287.3365   2418958.5758   5  28   1.5670   2.9712   1.5804  -1.3825   1.2034  -0.8353   0.00    0.0
2021/01/01 01:18:00.000  -2430580.3013   5374287.3776   2418958.5385   5  28   1.5693   2.9727   1.5809  -1.3877   1.2073  -0.8369   0.00    0.0
2021/01/01 01:18:30.000  -2430580.3595   5374287.3803   2418958.5113   5  28   1.5716   2.9743   1.5815  -1.3929   1.2112  -0.8384   0.00    0.0
2021/01/01 01:19:00.000  -2430580.3424   5374287.3165   2418958.4584   5  28   1.5740   2.9760   1.5821  -1.3981   1.2151  -0.8400   0.00    0.0
2021/01/01 01:19:30.000  -2430580.3031   5374287.2595   2418958.4246   5  28   1.5764   2.9776   1.5826  -1.4033   1.2190  -0.8416   0.00    0.0
2021/01/01 01:20:00.000  -2430580.3554   5374287.3169   2418958.4290   5  28   1.5787   2.9793   1.5832  -1.4085   1.2228  -0.8433   0.00    0.0
2021/01/01 01:20:30.000  -2430580.3251   5374287.2564   2418958.4290   5  28   1.5811   2.9811   1.5838  -1.4136   1.2267  -0.8449   0.00    0.0
2021/01/01 01:21:00.000  -2430580.2885   5374287.2140   2418958.3691   5  28   1.5835   2.9829   1.5843  -1.4188   1.2305  -0.8465   0.00    0.0
2021/01/01 01:21:30.000  -2430580.2712   5374287.1991   2418958.3792   5  28   1.5859   2.9847   1.5849  -1.4240   1.2344  -0.8482   0.00    0.0
2021/01/01 01:22:00.000  -2430580.3213   5374287.1744   2418958.4645   5  28   1.5884   2.9866   1.5855  -1.4292   1.2382  -0.8498   0.00    0.0
2021/01/01 01:22:30.000  -2430580.3823   5374287.1071   2418958.6256   5  28   1.5908   2.9885   1.5861  -1.4343   1.2420  -0.8515   0.00    0.0
2021/01/01 01:23:00.000  -2430580.3742   5374287.2304   2418958.6421   5  28   1.5933   2.9905   1.5867  -1.4395   1.2458  -0.8531   0.00    0.0
2021/01/01 01:23:30.000  -2430580.3768   5374287.4272   2418958.6305   5  28   1.5957   2.9925   1.5873  -1.4446   1.2496  -0.8548   0.00    0.0
2021/01/01 01:24:00.000  -2430580.3768   5374287.4971   2418958.6685   5  28   1.5982   2.9945   1.5879  -1.4498   1.2534  -0.8565   0.00    0.0
2021/01/01 01:24:30.000  -2430580.2891   5374287.4808   2418958.6078   5  28   1.6007   2.9966   1.5884  -1.4550   1.2572  -0.8582   0.00    0.0
2021/01/01 01:25:00.000  -2430580.3075   5374287.4306   2418958.6511   5  28   1.6032   2.9987   1.5891  -1.4601   1.2610  -0.8599   0.00    0.0
2021/01/01 01:25:30.000  -2430580.2927   5374287.4063   2418958.6461   5  28   1.6057   3.0009   1.5897  -1.4652   1.2647  -0.8616   0.00    0.0
2021/01/01 01:26:00.000  -2430580.3114   5374287.3548   2418958.5243   5  28   1.6083   3.0031   1.5903  -1.4704   1.2685  -0.8633   0.00    0.0
2021/01/01 01:26:30.000  -2430580.3396   5374287.2991   2418958.4366   5  28   1.6108   3.0053   1.5909  -1.4755   1.2722  -0.8650   0.00    0.0
2021/01/01 01:27:00.000  -2430580.4216   5374287.3367   2418958.4149   5  28   1.6133   3.0076   1.5915  -1.4806   1.2759  -0.8667   0.00    0.0
2021/01/01 01:27:30.000  -2430580.4019   5374287.3707   2418958.4258   5  28   1.6159   3.0099   1.5921  -1.4857   1.2796  -0.8684   0.00    0.0
2021/01/01 01:28:00.000  -2430580.3178   5374287.4495   2418958.4325   5  27   1.6450   3.0774   1.7385  -1.5518   1.4443  -0.9809   0.00    0.0
2021/01/01 01:28:30.000  -2430580.1710   5374287.4118   2418958.3624   5  27   1.6478   3.0811   1.7392  -1.5576   1.4493  -0.9831   0.00    0.0
2021/01/01 01:29:00.000  -2430580.0041   5374287.3112   2418958.3011   5  27   1.6506   3.0848   1.7400  -1.5634   1.4542  -0.9852   0.00    0.0
2021/01/01 01:29:30.000  -2430579.8844   5374287.1343   2418958.2842   5  27   1.6534   3.0885   1.7408  -1.5692   1.4591  -0.9873   0.00    0.0
2021/01/01 01:30:00.000  -2430579.8410   5374287.0247   2418958.3288   5  27   1.6562   3.0923   1.7415  -1.5750   1.4640  -0.9895   0.00    0.0
2021/01/01 01:30:30.000  -2430579.9874   5374287.4934   2418958.7984   5  27   1.6591   3.0960   1.7423  -1.5808   1.4688  -0.9916   0.00    0.0
2021/01/01 01:31:00.000  -2430580.0029   5374287.5350   2418958.8067   5  27   1.6619   3.0999   1.7430  -1.5865   1.4736  -0.9937   0.00    0.0
2021/01/01 01:31:30.000  -2430580.0681   5374287.3964   2418958.5564   5  28   1.6632   3.0978   1.6924  -1.5880   1.4508  -0.9807   0.00    0.0
2021/01/01 01:32:00.000  -2430580.1907   5374287.4919   2418958.6883   5  28   1.6662   3.1019   1.6935  -1.5939   1.4562  -0.9832   0.00    0.0
2021/01/01 01:32:30.000  -2430580.2620   5374287.7239   2418958.7964   5  28   1.6691   3.1060   1.6946  -1.5998   1.4616  -0.9857   0.00    0.0
2021/01/01 01:33:00.000  -2430580.2453   5374287.8370   2418958.8870   5  28   1.6720   3.1101   1.6957  -1.6056   1.4670  -0.9882   0.00    0.0
2021/01/01 01:33:30.000  -2430580.2673   5374287.9713   2418959.0225   5  28   1.6749   3.1143   1.6968  -1.6115   1.4723  -0.9907   0.00    0.0
2021/01/01 01:34:00.000  -2430580.3171   5374288.0116   2418959.0858   5  28   1.6779   3.1185   1.6979  -1.6173   1.4776  -0.9932   0.00    0.0
2021/01/01 01:34:30.000  -2430580.3506   5374287.8706   2418959.1002   5  28   1.6808   3.1227   1.6990  -1.6231   1.4828  -0.9957   0.00    0.0
2021/01/01 01:35:00.000  -2430580.3337   5374287.7677   2418959.1284   5  28   1.6838   3.1269   1.7001  -1.6289   1.4881  -0.9982   0.00    0.0
2021/01/01 01:35:30.000  -2430580.2849   5374287.6904   2418959.0771   5  28   1.6867   3.1312   1.7012  -1.6347   1.4932  -1.0007   0.00    0.0
2021/01/01 01:36:00.000  -2430580.1612   5374287.5174   2418958.9308   5  28   1.6897   3.1354   1.7023  -1.6405   1.4984  -1.0031   0.00    0.0
2021/01/01 01:36:30.000  -2430580.0998   5374287.3891   2418958.8948   5  28   1.6927   3.1397   1.7034  -1.6462   1.5035  -1.0056   0.00    0.0
2021/01/01 01:37:00.000  -2430580.1457   5374287.4349   2418958.8670   5  28   1.6956   3.1440   1.7045  -1.6519   1.5086  -1.0081   0.00    0.0
2021/01/01 01:37:30.000  -2430580.1433   5374287.4730   2418958.8104   5  28   1.6986   3.1483   1.7056  -1.6576   1.5136  -1.0105   0.00    0.0
2021/01/01 01:38:00.000  -2430580.2131   5374287.6700   2418958.8288   5  28   1.7016   3.1526   1.7067  -1.6633   1.5186  -1.0130   0.00    0.0
2021/01/01 01:38:30.000  -2430580.3118   5374288.0162   2418958.9384   5  28   1.7045   3.1569   1.7078  -1.6689   1.5236  -1.0154   0.00    0.0
2021/01/01 01:39:00.000  -2430580.4288   5374288.2183   2418959.0319   5  28   1.7075   3.1613   1.7089  -1.6745   1.5285  -1.0178   0.00    0.0
2021/01/01 01:39:30.000  -2430580.5147   5374288.2608   2418959.0841   5  28   1.7105   3.1656   1.7099  -1.6801   1.5334  -1.0203   0.00    0.0
2021/01/01 01:40:00.000  -2430580.5392   5374288.2456   2418959.1277   5  28   1.7134   3.1699   1.7110  -1.6857   1.5383  -1.0227   0.00    0.0
2021/01/01 01:40:30.000  -2430580.4607   5374288.1219   2418959.0977   5  28   1.7164   3.1742   1.7121  -1.6912   1.5431  -1.0251   0.00    0.0
2021/01/01 01:41:00.000  -2430580.4242   5374288.0024   2418959.1030   5  28   1.7194   3.1786   1.7131  -1.6967   1.5479  -1.0274   0.00    0.0
2021/01/01 01:41:30.000  -2430580.3256   5374287.8623   2418959.0627   5  28   1.7224   3.1829   1.7142  -1.7021   1.5526  -1.0298   0.00    0.0
2021/01/01 01:42:00.000  -2430580.2429   5374287.7430   2418959.0787   5  28   1.7253   3.1872   1.7152  -1.7076   1.5572  -1.0322   0.00    0.0
2021/01/01 01:42:30.000  -2430580.2072   5374287.7327   2418959.0823   5  28   1.7283   3.1915   1.7163  -1.7130   1.5619  -1.0345   0.00    0.0
2021/01/01 01:43:00.000  -2430580.1828   5374287.8167   2418959.1025   5  28   1.7312   3.1959   1.7173  -1.7183   1.5665  -1.0368   0.00    0.0
2021/01/01 01:43:30.000  -2430580.2532   5374288.0310   2418959.1776   5  28   1.7342   3.2002   1.7183  -1.7237   1.5710  -1.0391   0.00    0.0
2021/01/01 01:44:00.000  -2430580.2817   5374288.1379   2418959.1548   5  28   1.7371   3.2044   1.7193  -1.7290   1.5755  -1.0414   0.00    0.0
2021/01/01 01:44:30.000  -2430580.3997   5374288.3482   2418959.1956   5  28   1.7401   3.2087   1.7204  -1.7342   1.5799  -1.0437   0.00    0.0
2021/01/01 01:45:00.000  -2430580.4067   5374288.4127   2418959.0281   5  29   1.7367   3.1617   1.5644  -1.7148   1.4489  -0.9935   0.00    0.0
2021/01/01 01:45:30.000  -2430580.3949   5374288.4132   2418958.9946   5  29   1.7397   3.1660   1.5656  -1.7202   1.4538  -0.9962   0.00    0.0
2021/01/01 01:46:00.000  -2430580.3106   5374288.3743   2418958.9511   5  29   1.7427   3.1703   1.5668  -1.7255   1.4586  -0.9988   0.00    0.0
2021/01/01 01:46:30.000  -2430580.1786   5374288.1093   2418958.8936   5  29   1.7457   3.1747   1.5679  -1.7309   1.4633  -1.0015   0.00    0.0
2021/01/01 01:47:00.000  -2430580.0795   5374287.8427   2418958.8889   5  29   1.7487   3.1790   1.5691  -1.7362   1.4680  -1.0041   0.00    0.0
2021/01/01 01:47:30.000  -2430580.0172   5374287.7640   2418958.8617   5  29   1.7517   3.1833   1.5703  -1.7414   1.4727  -1.0067   0.00    0.0
2021/01/01 01:48:00.000  -2430580.0308   5374287.7597   2418958.8943   5  29   1.7546   3.1876   1.5715  -1.7466   1.4774  -1.0093   0.00    0.0
2021/01/01 01:48:30.000  -2430580.1033   5374287.8099   2418958.8823   5  29   1.7576   3.1919   1.5727  -1.7518   1.4820  -1.0119   0.00    0.0
2021/01/01 01:49:00.000  -2430580.1705   5374287.8918   2418958.8510   5  29   1.7606   3.1962   1.5739  -1.7570   1.4866  -1.0145   0.00    0.0
2021/01/01 01:49:30.000  -2430580.2527   5374287.9920   2418958.8823   5  29   1.7635   3.2005   1.5751  -1.7621   1.4912  -1.0171   0.00    0.0
2021/01/01 01:50:00.000  -2430580.2919   5374287.9244   2418958.9328   5  29   1.7665   3.2047   1.5763  -1.7671   1.4957  -1.0196   0.00    0.0
2021/01/01 01:50:30.000  -2430580.3377   5374287.8939   2418959.0077   5  29   1.7694   3.2089   1.5775  -1.7721   1.5002  -1.0222   0.00    0.0
2021/01/01 01:51:00.000  -2430580.2926   5374287.9086   2418959.0767   5  29   1.7724   3.2131   1.5787  -1.7771   1.5046  -1.0247   0.00    0.0
2021/01/01 01:51:30.000  -2430580.3340   5374288.0250   2418959.2008   5  29   1.7753   3.2173   1.5799  -1.7820   1.5090  -1.0272   0.00    0.0
2021/01/01 01:52:00.000  -2430580.4258   5374288.1583   2418959.2978   5  29   1.7782   3.2214   1.5811  -1.7869   1.5133  -1.0297   0.00    0.0
2021/01/01 01:52:30.000  -2430580.5374   5374288.2841   2418959.3515   5  29   1.7811   3.2256   1.5823  -1.7918   1.5176  -1.0321   0.00    0.0
2021/01/01 01:53:00.000  -2430580.6840   5374288.4582   2418959.4216   5  29   1.7839   3.2296   1.5835  -1.7966   1.5219  -1.0346   0.00    0.0
2021/01/01 01:53:30.000  -2430580.7926   5374288.6312   2418959.4390   5  29   1.7868   3.2337   1.5847  -1.8013   1.5261  -1.0370   0.00    0.0
2021/01/01 01:54:00.000  -2430580.7302   5374288.5421   2418959.4854   5  29   1.7897   3.2377   1.5859  -1.8060   1.5303  -1.0394   0.00    0.0
2021/01/01 01:54:30.000  -2430580.5815   5374288.3391   2418959.5314   5  29   1.7925   3.2417   1.5871  -1.8106   1.5344  -1.0418   0.00    0.0
2021/01/01 01:55:00.000  -2430580.4460   5374288.0933   2418959.6267   5  29   1.7953   3.2457   1.5883  -1.8152   1.5385  -1.0442   0.00    0.0
2021/01/01 01:55:30.000  -2430580.4540   5374288.0534   2418959.6659   5  29   1.7981   3.2496   1.5895  -1.8197   1.5425  -1.0465   0.00    0.0
2021/01/01 01:56:00.000  -2430580.4645   5374288.1120   2418959.6871   5  29   1.8009   3.2535   1.5907  -1.8242   1.5465  -1.0489   0.00    0.0
2021/01/01 01:56:30.000  -2430580.5129   5374288.1599   2418959.7556   5  29   1.8037   3.2573   1.5919  -1.8286   1.5504  -1.0512   0.00    0.0
2021/01/01 01:57:00.000  -2430580.4958   5374288.1782   2418959.7301   5  29   1.8064   3.2611   1.5931  -1.8330   1.5543  -1.0534   0.00    0.0
2021/01/01 01:57:30.000  -2430580.5001   5374288.2484   2418959.6404   5  29   1.8092   3.2648   1.5943  -1.8373   1.5581  -1.0557   0.00    0.0
2021/01/01 01:58:00.000  -2430580.5520   5374288.3204   2418959.5942   5  29   1.8119   3.2685   1.5955  -1.8416   1.5619  -1.0579   0.00    0.0
2021/01/01 01:58:30.000  -2430580.5513   5374288.3022   2418959.5331   5  29   1.8146   3.2722   1.5967  -1.8458   1.5656  -1.0601   0.00    0.0
2021/01/01 01:59:00.000  -2430580.5956   5374288.3324   2418959.5171   5  29   1.8173   3.2758   1.5978  -1.8499   1.5693  -1.0623   0.00    0.0
2021/01/01 01:59:30.000  -2430580.6855   5374288.4932   2418959.5811   5  29   1.8199   3.2793   1.5990  -1.8540   1.5729  -1.0644   0.00    0.0
2021/01/01 02:00:00.000  -2430580.8242   5374288.7377   2418959.6339   5  29   1.8226   3.2828   1.6002  -1.8580   1.5765  -1.0665   0.00    0.0
2021/01/01 02:00:30.000  -2430580.9075   5374288.7356   2418959.5723   5  29   1.8252   3.2862   1.6014  -1.8619   1.5800  -1.0686   0.00    0.0
2021/01/01 02:01:00.000  -2430580.9054   5374288.6982   2418959.5492   5  29   1.8278   3.2896   1.6025  -1.8658   1.5834  -1.0707   0.00    0.0
2021/01/01 02:01:30.000  -2430580.8192   5374288.5751   2418959.5691   5  29   1.8304   3.2929   1.6037  -1.8697   1.5868  -1.0727   0.00    0.0
2021/01/01 02:02:00.000  -2430580.7887   5374288.5571   2418959.6481   5  29   1.8329   3.2962   1.6048  -1.8734   1.5901  -1.0747   0.00    0.0
2021/01/01 02:02:30.000  -2430580.8566   5374288.6294   2418959.7042   5  29   1.8354   3.2994   1.6059  -1.8771   1.5934  -1.0767   0.00    0.0
2021/01/01 02:03:00.000  -2430580.8377   5374288.4713   2418959.7147   5  29   1.8379   3.3026   1.6071  -1.8807   1.5966  -1.0786   0.00    0.0
2021/01/01 02:03:30.000  -2430580.8273   5374288.3056   2418959.6960   5  29   1.8404   3.3056   1.6082  -1.8843   1.5998  -1.0805   0.00    0.0
2021/01/01 02:04:00.000  -2430580.7348   5374288.2403   2418959.6238   5  29   1.8429   3.3086   1.6093  -1.8878   1.6029  -1.0824   0.00    0.0
2021/01/01 02:04:30.000  -2430580.6905   5374288.2731   2418959.5029   5  29   1.8453   3.3116   1.6104  -1.8912   1.6060  -1.0842   0.00    0.0
2021/01/01 02:05:00.000  -2430580.7209   5374288.4133   2418959.5184   5  29   1.8477   3.3145   1.6115  -1.8946   1.6089  -1.0860   0.00    0.0
2021/01/01 02:05:30.000  -2430580.6812   5374288.4190   2418959.4987   5  29   1.8501   3.3173   1.6126  -1.8979   1.6119  -1.0878   0.00    0.0
2021/01/01 02:06:00.000  -2430580.6886   5374288.5006   2418959.6129   5  29   1.8525   3.3200   1.6137  -1.9011   1.6147  -1.0895   0.00    0.0
2021/01/01 02:06:30.000  -2430580.7392   5374288.5880   2418959.7056   5  29   1.8548   3.3227   1.6148  -1.9042   1.6175  -1.0912   0.00    0.0
2021/01/01 02:07:00.000  -2430580.7462   5374288.6276   2418959.7186   5  29   1.8571   3.3253   1.6159  -1.9073   1.6202  -1.0929   0.00    0.0
2021/01/01 02:07:30.000  -2430580.7577   5374288.6291   2418959.7062   5  29   1.8594   3.3279   1.6169  -1.9103   1.6229  -1.0945   0.00    0.0
2021/01/01 02:08:00.000  -2430580.7549   5374288.5187   2418959.6518   5  29   1.8617   3.3303   1.6180  -1.9132   1.6255  -1.0961   0.00    0.0
2021/01/01 02:08:30.000  -2430580.7129   5374288.4865   2418959.6396   5  29   1.8639   3.3327   1.6190  -1.9161   1.6281  -1.0977   0.00    0.0
2021/01/01 02:09:00.000  -2430580.7796   5374288.5110   2418959.7554   5  28   1.8866   3.3430   1.6572  -1.9355   1.6551  -1.1424   0.00    0.0
2021/01/01 02:09:30.000  -2430580.7303   5374288.4960   2418959.8248   5  28   1.8891   3.3458   1.6587  -1.9389   1.6585  -1.1445   0.00    0.0
2021/01/01 02:10:00.000  -2430580.7860   5374288.4694   2418959.9057   5  28   1.8916   3.3485   1.6602  -1.9422   1.6617  -1.1466   0.00    0.0
2021/01/01 02:10:30.000  -2430580.8111   5374288.5258   2418959.8856   5  28   1.8941   3.3511   1.6616  -1.9455   1.6649  -1.1486   0.00    0.0
2021/01/01 02:11:00.000  -2430580.8492   5374288.6644   2418959.8846   5  28   1.8966   3.3537   1.6631  -1.9486   1.6680  -1.1506   0.00    0.0
2021/01/01 02:11:30.000  -2430580.8174   5374288.6322   2418959.8133   5  28   1.8990   3.3561   1.6645  -1.9517   1.6711  -1.1526   0.00    0.0
2021/01/01 02:12:00.000  -2430580.7848   5374288.5551   2418959.7285   5  28   1.9014   3.3586   1.6659  -1.9548   1.6741  -1.1545   0.00    0.0
2021/01/01 02:12:30.000  -2430580.8532   5374288.6390   2418959.6724   5  28   1.9038   3.3609   1.6673  -1.9577   1.6770  -1.1564   0.00    0.0
2021/01/01 02:13:00.000  -2430580.8100   5374288.7110   2418959.5702   5  28   1.9061   3.3632   1.6687  -1.9606   1.6799  -1.1582   0.00    0.0
2021/01/01 02:13:30.000  -2430580.8343   5374288.8273   2418959.6015   5  28   1.9084   3.3654   1.6701  -1.9634   1.6827  -1.1600   0.00    0.0
2021/01/01 02:14:00.000  -2430580.8535   5374288.9380   2418959.6899   5  28   1.9107   3.3675   1.6714  -1.9661   1.6854  -1.1618   0.00    0.0
2021/01/01 02:14:30.000  -2430580.8918   5374289.1222   2418959.7523   5  28   1.9129   3.3696   1.6728  -1.9688   1.6881  -1.1635   0.00    0.0
2021/01/01 02:15:00.000  -2430580.9961   5374289.3239   2418959.8635   5  28   1.9152   3.3716   1.6741  -1.9714   1.6907  -1.1652   0.00    0.0
2021/01/01 02:15:30.000  -2430581.1658   5374289.5967   2418960.0502   5  28   1.9174   3.3735   1.6755  -1.9739   1.6932  -1.1668   0.00    0.0
2021/01/01 02:16:00.000  -2430581.1992   5374289.6985   2418960.1200   5  28   1.9195   3.3753   1.6768  -1.9763   1.6957  -1.1684   0.00    0.0
2021/01/01 02:16:30.000  -2430581.1157   5374289.5956   2418959.9987   5  28   1.9216   3.3770   1.6780  -1.9786   1.6980  -1.1700   0.00    0.0
2021/01/01 02:17:00.000  -2430580.9975   5374289.4045   2418959.8477   5  28   1.9237   3.3787   1.6793  -1.9809   1.7004  -1.1715   0.00    0.0
2021/01/01 02:17:30.000  -2430580.8793   5374289.1107   2418959.7758   5  28   1.9258   3.3803   1.6806  -1.9831   1.7026  -1.1730   0.00    0.0
2021/01/01 02:18:00.000  -2430580.8079   5374289.0011   2418959.7740   5  28   1.9278   3.3818   1.6818  -1.9852   1.7048  -1.1744   0.00    0.0
2021/01/01 02:18:30.000  -2430580.5099   5374288.6562   2418959.5572   5  27   2.0967   3.5348   1.8268  -2.1882   1.9081  -1.4016   0.00    0.0
2021/01/01 02:19:00.000  -2430580.4406   5374288.6194   2418959.5750   5  27   2.0989   3.5375   1.8287  -2.1912   1.9113  -1.4036   0.00    0.0
2021/01/01 02:19:30.000  -2430580.4520   5374288.7316   2418959.5338   5  27   2.1011   3.5400   1.8305  -2.1939   1.9144  -1.4056   0.00    0.0
2021/01/01 02:20:00.000  -2430580.4547   5374288.8140   2418959.5735   5  27   2.1033   3.5424   1.8324  -2.1966   1.9174  -1.4074   0.00    0.0
2021/01/01 02:20:30.000  -2430580.4060   5374288.8116   2418959.6613   5  27   2.1054   3.5447   1.8342  -2.1992   1.9203  -1.4092   0.00    0.0
2021/01/01 02:21:00.000  -2430580.4018   5374288.7414   2418959.7382   5  27   2.1075   3.5469   1.8360  -2.2017   1.9231  -1.4110   0.00    0.0
2021/01/01 02:21:30.000  -2430580.4294   5374288.6888   2418959.7324   5  27   2.1095   3.5489   1.8377  -2.2041   1.9259  -1.4127   0.00    0.0
2021/01/01 02:22:00.000  -2430580.4973   5374288.7796   2418959.7503   5  27   2.1114   3.5509   1.8394  -2.2063   1.9285  -1.4143   0.00    0.0
2021/01/01 02:22:30.000  -2430580.6000   5374288.9501   2418959.8639   5  27   2.1133   3.5527   1.8411  -2.2085   1.9310  -1.4158   0.00    0.0
2021/01/01 02:23:00.000  -2430580.6818   5374288.9675   2418959.9305   5  27   2.1152   3.5545   1.8427  -2.2105   1.9334  -1.4173   0.00    0.0
2021/01/01 02:23:30.000  -2430580.6857   5374288.8922   2418959.9076   5  27   2.1170   3.5561   1.8443  -2.2125   1.9357  -1.4187   0.00    0.0
2021/01/01 02:24:00.000  -2430580.6485   5374288.8655   2418959.8759   5  27   2.1188   3.5576   1.8459  -2.2143   1.9380  -1.4201   0.00    0.0
2021/01/01 02:24:30.000  -2430580.6192   5374288.8976   2418959.8678   5  27   2.1205   3.5590   1.8474  -2.2160   1.9401  -1.4214   0.00    0.0
2021/01/01 02:25:00.000  -2430580.6354   5374289.0290   2418959.8340   5  27   2.1221   3.5603   1.8489  -2.2176   1.9421  -1.4226   0.00    0.0
2021/01/01 02:25:30.000  -2430580.6487   5374289.0204   2418959.8401   5  27   2.1237   3.5615   1.8504  -2.2192   1.9440  -1.4237   0.00    0.0
2021/01/01 02:26:00.000  -2430580.7302   5374289.0927   2418959.8806   5  27   2.1253   3.5625   1.8518  -2.2206   1.9459  -1.4248   0.00    0.0
2021/01/01 02:26:30.000  -2430580.8216   5374289.1790   2418959.9122   5  27   2.1268   3.5635   1.8532  -2.2219   1.9476  -1.4258   0.00    0.0
2021/01/01 02:27:00.000  -2430580.8503   5374289.4301   2418959.9468   5  27   2.1282   3.5643   1.8545  -2.2231   1.9492  -1.4268   0.00    0.0
2021/01/01 02:27:30.000  -2430580.7499   5374289.5223   2418959.9011   5  27   2.1296   3.5650   1.8559  -2.2241   1.9507  -1.4277   0.00    0.0
2021/01/01 02:28:00.000  -2430580.7571   5374289.5613   2418959.9413   5  27   2.1310   3.5656   1.8571  -2.2251   1.9522  -1.4285   0.00    0.0
2021/01/01 02:28:30.000  -2430580.7969   5374289.4949   2418959.9791   5  27   2.1323   3.5661   1.8584  -2.2260   1.9535  -1.4292   0.00    0.0
2021/01/01 02:29:00.000  -2430580.7870   5374289.3377   2418959.9502   5  27   2.1335   3.5665   1.8596  -2.2268   1.9547  -1.4299   0.00    0.0
2021/01/01 02:29:30.000  -2430580.3358   5374288.3109   2418959.3444   5  28   2.0700   3.4241   1.6969  -2.1073   1.7501  -1.2838   0.00    0.0
2021/01/01 02:30:00.000  -2430580.3139   5374288.1593   2418959.3896   5  28   2.0714   3.4248   1.6981  -2.1083   1.7516  -1.2847   0.00    0.0
2021/01/01 02:30:30.000  -2430580.4381   5374288.4735   2418959.4807   5  28   2.0728   3.4254   1.6994  -2.1092   1.7531  -1.2855   0.00    0.0
2021/01/01 02:31:00.000  -2430580.3732   5374288.4061   2418959.4540   5  28   2.0741   3.4259   1.7006  -2.1100   1.7545  -1.2862   0.00    0.0
2021/01/01 02:31:30.000  -2430580.3758   5374288.3524   2418959.4977   5  28   2.0754   3.4263   1.7018  -2.1108   1.7558  -1.2869   0.00    0.0
2021/01/01 02:32:00.000  -2430580.4819   5374288.3591   2418959.5332   5  28   2.0766   3.4267   1.7030  -2.1114   1.7571  -1.2876   0.00    0.0
2021/01/01 02:32:30.000  -2430580.4646   5374288.2774   2418959.5526   5  28   2.0778   3.4269   1.7041  -2.1120   1.7583  -1.2882   0.00    0.0
2021/01/01 02:33:00.000  -2430580.5320   5374288.4031   2418959.6271   5  28   2.0790   3.4271   1.7052  -2.1125   1.7594  -1.2887   0.00    0.0
2021/01/01 02:33:30.000  -2430580.6071   5374288.6250   2418959.6656   5  28   2.0801   3.4272   1.7063  -2.1130   1.7604  -1.2893   0.00    0.0
2021/01/01 02:34:00.000  -2430580.6132   5374288.7035   2418959.6833   5  28   2.0813   3.4272   1.7074  -2.1133   1.7614  -1.2897   0.00    0.0
2021/01/01 02:34:30.000  -2430580.4958   5374288.4959   2418959.6637   5  28   2.0823   3.4271   1.7084  -2.1136   1.7622  -1.2901   0.00    0.0
2021/01/01 02:35:00.000  -2430580.4547   5374288.5118   2418959.6958   5  28   2.0834   3.4270   1.7095  -2.1138   1.7631  -1.2905   0.00    0.0
2021/01/01 02:35:30.000  -2430580.4489   5374288.6303   2418959.7003   5  28   2.0844   3.4267   1.7105  -2.1139   1.7638  -1.2908   0.00    0.0
2021/01/01 02:36:00.000  -2430580.3988   5374288.6467   2418959.7077   5  28   2.0854   3.4264   1.7115  -2.1140   1.7645  -1.2911   0.00    0.0
2021/01/01 02:36:30.000  -2430580.4972   5374288.9401   2418959.6980   5  28   2.0864   3.4260   1.7124  -2.1139   1.7651  -1.2914   0.00    0.0
2021/01/01 02:37:00.000  -2430580.5552   5374289.0716   2418959.6295   5  28   2.0873   3.4256   1.7134  -2.1138   1.7656  -1.2915   0.00    0.0
2021/01/01 02:37:30.000  -2430580.5675   5374289.1821   2418959.5906   5  28   2.0882   3.4250   1.7143  -2.1137   1.7661  -1.2917   0.00    0.0
2021/01/01 02:38:00.000  -2430580.5980   5374289.2979   2418959.5949   5  30   1.8760   3.2867   1.6024  -1.8974   1.6376  -1.0882   0.00    0.0
2021/01/01 02:38:30.000  -2430580.5974   5374289.2714   2418959.6089   5  30   1.8771   3.2873   1.6039  -1.8983   1.6393  -1.0890   0.00    0.0
2021/01/01 02:39:00.000  -2430580.6686   5374289.4398   2418959.6047   5  30   1.8781   3.2879   1.6053  -1.8991   1.6410  -1.0897   0.00    0.0
2021/01/01 02:39:30.000  -2430580.6741   5374289.5019   2418959.6718   5  30   1.8791   3.2883   1.6068  -1.9000   1.6427  -1.0904   0.00    0.0
2021/01/01 02:40:00.000  -2430580.6212   5374289.4351   2418959.6916   5  30   1.8802   3.2888   1.6082  -1.9007   1.6443  -1.0910   0.00    0.0
2021/01/01 02:40:30.000  -2430580.5938   5374289.5192   2418959.7427   5  30   1.8812   3.2892   1.6096  -1.9015   1.6458  -1.0917   0.00    0.0
2021/01/01 02:41:00.000  -2430580.6251   5374289.6229   2418959.8015   5  30   1.8822   3.2895   1.6111  -1.9022   1.6473  -1.0923   0.00    0.0
2021/01/01 02:41:30.000  -2430580.6167   5374289.4104   2418959.8268   5  30   1.8832   3.2898   1.6125  -1.9029   1.6488  -1.0929   0.00    0.0
2021/01/01 02:42:00.000  -2430580.6470   5374289.3358   2418959.8740   5  30   1.8842   3.2900   1.6139  -1.9035   1.6502  -1.0935   0.00    0.0
2021/01/01 02:42:30.000  -2430580.7353   5374289.3576   2418959.8355   5  30   1.8852   3.2902   1.6153  -1.9041   1.6515  -1.0941   0.00    0.0
2021/01/01 02:43:00.000  -2430580.7134   5374289.3191   2418959.7523   5  30   1.8862   3.2904   1.6167  -1.9047   1.6528  -1.0946   0.00    0.0
2021/01/01 02:43:30.000  -2430580.6470   5374289.1661   2418959.6665   5  30   1.8872   3.2905   1.6181  -1.9052   1.6541  -1.0952   0.00    0.0
2021/01/01 02:44:00.000  -2430580.6720   5374289.1155   2418959.6617   5  30   1.8882   3.2905   1.6194  -1.9057   1.6553  -1.0957   0.00    0.0
2021/01/01 02:44:30.000  -2430580.7179   5374289.2403   2418959.7226   5  30   1.8892   3.2905   1.6208  -1.9061   1.6565  -1.0962   0.00    0.0
2021/01/01 02:45:00.000  -2430580.7615   5374289.2593   2418959.7952   5  30   1.8901   3.2905   1.6222  -1.9066   1.6576  -1.0967   0.00    0.0
2021/01/01 02:45:30.000  -2430580.7637   5374289.1749   2418959.8041   5  30   1.8911   3.2904   1.6235  -1.9070   1.6587  -1.0971   0.00    0.0
2021/01/01 02:46:00.000  -2430580.6949   5374289.0758   2418959.8297   5  30   1.8921   3.2902   1.6249  -1.9073   1.6598  -1.0976   0.00    0.0
2021/01/01 02:46:30.000  -2430580.6550   5374289.0737   2418959.8656   5  30   1.8930   3.2901   1.6262  -1.9076   1.6608  -1.0980   0.00    0.0
2021/01/01 02:47:00.000  -2430580.6272   5374288.9449   2418959.8491   5  30   1.8940   3.2898   1.6275  -1.9079   1.6617  -1.0984   0.00    0.0
2021/01/01 02:47:30.000  -2430580.5239   5374288.9129   2418959.8977   5  30   1.8950   3.2896   1.6288  -1.9082   1.6627  -1.0988   0.00    0.0
2021/01/01 02:48:00.000  -2430580.5198   5374289.0346   2418959.8949   5  30   1.8959   3.2893   1.6301  -1.9085   1.6635  -1.0992   0.00    0.0
2021/01/01 02:48:30.000  -2430580.5904   5374289.1780   2418959.9392   5  30   1.8969   3.2889   1.6314  -1.9087   1.6644  -1.0996   0.00    0.0
2021/01/01 02:49:00.000  -2430580.6142   5374289.1933   2418959.9791   5  30   1.8978   3.2885   1.6327  -1.9089   1.6652  -1.0999   0.00    0.0
2021/01/01 02:49:30.000  -2430580.2526   5374288.5588   2418959.6371   5  28   1.9633   3.6181   1.6981  -2.0040   1.8250  -1.1927   0.00    0.0
2021/01/01 02:50:00.000  -2430580.3925   5374288.6288   2418959.6427   5  28   1.9647   3.6182   1.7002  -2.0053   1.8273  -1.1941   0.00    0.0
2021/01/01 02:50:30.000  -2430580.5757   5374288.6734   2418959.6408   5  28   1.9661   3.6182   1.7024  -2.0066   1.8295  -1.1955   0.00    0.0
2021/01/01 02:51:00.000  -2430580.6331   5374288.5988   2418959.6343   5  28   1.9675   3.6182   1.7046  -2.0078   1.8316  -1.1968   0.00    0.0
2021/01/01 02:51:30.000  -2430580.5839   5374288.3787   2418959.6638   5  28   1.9689   3.6181   1.7068  -2.0090   1.8337  -1.1982   0.00    0.0
2021/01/01 02:52:00.000  -2430580.4965   5374288.0728   2418959.6460   5  28   1.9703   3.6180   1.7089  -2.0101   1.8358  -1.1995   0.00    0.0
2021/01/01 02:52:30.000  -2430580.4732   5374288.0477   2418959.7630   5  28   1.9717   3.6178   1.7110  -2.0112   1.8378  -1.2008   0.00    0.0
2021/01/01 02:53:00.000  -2430580.4273   5374288.0639   2418959.7548   5  28   1.9731   3.6175   1.7132  -2.0123   1.8398  -1.2021   0.00    0.0
2021/01/01 02:53:30.000  -2430580.4279   5374288.0922   2418959.7398   5  28   1.9745   3.6173   1.7153  -2.0134   1.8417  -1.2034   0.00    0.0
2021/01/01 02:54:00.000  -2430580.4265   5374288.1334   2418959.7115   5  28   1.9759   3.6169   1.7174  -2.0144   1.8436  -1.2046   0.00    0.0
2021/01/01 02:54:30.000  -2430580.4159   5374288.0927   2418959.6510   5  28   1.9773   3.6166   1.7195  -2.0154   1.8454  -1.2059   0.00    0.0
2021/01/01 02:55:00.000  -2430580.3940   5374288.0800   2418959.6569   5  28   1.9787   3.6162   1.7216  -2.0164   1.8472  -1.2071   0.00    0.0
2021/01/01 02:55:30.000  -2430580.4052   5374288.2235   2418959.6620   5  28   1.9801   3.6157   1.7237  -2.0173   1.8489  -1.2083   0.00    0.0
2021/01/01 02:56:00.000  -2430580.3514   5374288.2753   2418959.6475   5  28   1.9815   3.6152   1.7257  -2.0182   1.8507  -1.2096   0.00    0.0
2021/01/01 02:56:30.000  -2430580.3016   5374288.3000   2418959.6673   5  28   1.9829   3.6147   1.7278  -2.0191   1.8523  -1.2107   0.00    0.0
2021/01/01 02:57:00.000  -2430580.3697   5374288.3618   2418959.7158   5  28   1.9842   3.6141   1.7298  -2.0200   1.8539  -1.2119   0.00    0.0
2021/01/01 02:57:30.000  -2430580.4652   5374288.4011   2418959.8095   5  28   1.9856   3.6135   1.7319  -2.0208   1.8555  -1.2131   0.00    0.0
2021/01/01 02:58:00.000  -2430580.4570   5374288.3061   2418959.8509   5  28   1.9870   3.6129   1.7339  -2.0216   1.8571  -1.2142   0.00    0.0
2021/01/01 02:58:30.000  -2430580.4258   5374288.1251   2418959.7999   5  28   1.9884   3.6122   1.7359  -2.0224   1.8586  -1.2153   0.00    0.0
2021/01/01 02:59:00.000  -2430580.4932   5374287.9644   2418959.7720   5  28   1.9898   3.6115   1.7379  -2.0232   1.8600  -1.2165   0.00    0.0
2021/01/01 02:59:30.000  -2430580.4939   5374287.8602   2418959.7227   5  28   1.9912   3.6108   1.7399  -2.0239   1.8615  -1.2176   0.00    0.0
2021/01/01 03:00:00.000  -2430580.3469   5374287.7153   2418959.6750   5  28   1.9926   3.6100   1.7418  -2.0246   1.8629  -1.2187   0.00    0.0
2021/01/01 03:00:30.000  -2430580.3156   5374287.8990   2418959.7627   5  28   1.9939   3.6092   1.7438  -2.0253   1.8642  -1.2197   0.00    0.0
2021/01/01 03:01:00.000  -2430580.2527   5374288.0030   2418959.8357   5  28   1.9953   3.6083   1.7457  -2.0260   1.8655  -1.2208   0.00    0.0
2021/01/01 03:01:30.000  -2430580.2079   5374288.0386   2418959.8379   5  28   1.9967   3.6075   1.7477  -2.0267   1.8668  -1.2219   0.00    0.0
2021/01/01 03:02:00.000  -2430580.1361   5374287.9342   2418959.7176   5  28   1.9981   3.6066   1.7496  -2.0273   1.8680  -1.2229   0.00    0.0
2021/01/01 03:02:30.000  -2430580.0201   5374287.7532   2418959.5330   5  28   1.9995   3.6056   1.7515  -2.0280   1.8693  -1.2239   0.00    0.0
2021/01/01 03:03:00.000  -2430579.9196   5374287.6336   2418959.4368   5  28   2.0009   3.6047   1.7534  -2.0286   1.8704  -1.2249   0.00    0.0
2021/01/01 03:03:30.000  -2430579.8286   5374287.5138   2418959.4082   5  28   2.0023   3.6037   1.7552  -2.0292   1.8716  -1.2260   0.00    0.0
2021/01/01 03:04:00.000  -2430579.8344   5374287.4094   2418959.5022   5  28   2.0037   3.6027   1.7571  -2.0297   1.8727  -1.2269   0.00    0.0
2021/01/01 03:04:30.000  -2430579.7756   5374287.3338   2418959.5752   5  28   2.0052   3.6017   1.7590  -2.0303   1.8737  -1.2279   0.00    0.0
2021/01/01 03:05:00.000  -2430579.7904   5374287.4059   2418959.6328   5  28   2.0066   3.6006   1.7608  -2.0309   1.8747  -1.2289   0.00    0.0
2021/01/01 03:05:30.000  -2430579.6258   5374287.4003   2418959.3827   5  29   1.9810   3.5874   1.7033  -2.0074   1.8397  -1.1678   0.00    0.0
2021/01/01 03:06:00.000  -2430579.7190   5374287.6306   2418959.4068   5  29   1.9826   3.5868   1.7052  -2.0084   1.8414  -1.1690   0.00    0.0
2021/01/01 03:06:30.000  -2430579.7782   5374287.7242   2418959.4177   5  29   1.9842   3.5860   1.7072  -2.0094   1.8430  -1.1703   0.00    0.0
2021/01/01 03:07:00.000  -2430579.8433   5374287.7807   2418959.4019   5  29   1.9858   3.5853   1.7091  -2.0104   1.8446  -1.1715   0.00    0.0
2021/01/01 03:07:30.000  -2430579.8871   5374287.8013   2418959.3874   5  29   1.9875   3.5846   1.7111  -2.0114   1.8461  -1.1727   0.00    0.0
2021/01/01 03:08:00.000  -2430579.9062   5374287.7601   2418959.2888   5  29   1.9891   3.5838   1.7130  -2.0124   1.8476  -1.1740   0.00    0.0
2021/01/01 03:08:30.000  -2430580.0139   5374287.7300   2418959.2384   5  29   1.9908   3.5830   1.7149  -2.0134   1.8492  -1.1752   0.00    0.0
2021/01/01 03:09:00.000  -2430580.0516   5374287.7798   2418959.1799   5  29   1.9924   3.5822   1.7169  -2.0143   1.8506  -1.1764   0.00    0.0
2021/01/01 03:09:30.000  -2430580.0538   5374287.7664   2418959.2156   5  29   1.9941   3.5813   1.7188  -2.0153   1.8521  -1.1776   0.00    0.0
2021/01/01 03:10:00.000  -2430580.0355   5374287.6959   2418959.2546   5  29   1.9958   3.5805   1.7207  -2.0162   1.8535  -1.1789   0.00    0.0
2021/01/01 03:10:30.000  -2430580.0565   5374287.6140   2418959.2527   5  29   1.9975   3.5796   1.7226  -2.0172   1.8549  -1.1801   0.00    0.0
2021/01/01 03:11:00.000  -2430580.0149   5374287.3293   2418959.1658   5  29   1.9992   3.5787   1.7245  -2.0181   1.8563  -1.1813   0.00    0.0
2021/01/01 03:11:30.000  -2430579.9683   5374286.8972   2418958.9510   5  28   2.0009   3.6751   1.7631  -2.0229   1.9369  -1.1854   0.00    0.0
2021/01/01 03:12:00.000  -2430579.9358   5374286.6960   2418958.8989   5  28   2.0027   3.6746   1.7655  -2.0242   1.9390  -1.1868   0.00    0.0
2021/01/01 03:12:30.000  -2430579.8987   5374286.8244   2418958.8652   5  28   2.0044   3.6741   1.7679  -2.0255   1.9410  -1.1883   0.00    0.0
2021/01/01 03:13:00.000  -2430579.8168   5374286.9519   2418958.8502   5  28   2.0062   3.6736   1.7703  -2.0268   1.9430  -1.1898   0.00    0.0
2021/01/01 03:13:30.000  -2430579.7877   5374287.1050   2418958.9158   5  28   2.0079   3.6731   1.7726  -2.0280   1.9450  -1.1913   0.00    0.0
2021/01/01 03:14:00.000  -2430579.8330   5374287.3138   2418959.0051   5  28   2.0097   3.6726   1.7750  -2.0293   1.9469  -1.1928   0.00    0.0
2021/01/01 03:14:30.000  -2430579.8616   5374287.4122   2418959.0901   5  28   2.0115   3.6720   1.7774  -2.0306   1.9489  -1.1943   0.00    0.0
2021/01/01 03:15:00.000  -2430579.8612   5374287.4111   2418959.1372   5  28   2.0133   3.6715   1.7797  -2.0318   1.9507  -1.1958   0.00    0.0
2021/01/01 03:15:30.000  -2430579.8107   5374287.4603   2418959.1918   5  28   2.0151   3.6709   1.7820  -2.0331   1.9526  -1.1973   0.00    0.0
2021/01/01 03:16:00.000  -2430579.8331   5374287.4586   2418959.1661   5  28   2.0169   3.6703   1.7843  -2.0344   1.9545  -1.1988   0.00    0.0
2021/01/01 03:16:30.000  -2430579.7887   5374287.2980   2418959.0595   5  28   2.0188   3.6697   1.7866  -2.0356   1.9563  -1.2003   0.00    0.0
2021/01/01 03:17:00.000  -2430579.7741   5374287.1556   2418958.9779   5  28   2.0206   3.6690   1.7889  -2.0369   1.9580  -1.2018   0.00    0.0
2021/01/01 03:17:30.000  -2430579.6944   5374286.8664   2418958.8952   5  28   2.0225   3.6684   1.7912  -2.0381   1.9598  -1.2033   0.00    0.0
2021/01/01 03:18:00.000  -2430579.6017   5374286.6120   2418958.7862   5  28   2.0243   3.6677   1.7935  -2.0394   1.9615  -1.2048   0.00    0.0
2021/01/01 03:18:30.000  -2430579.5050   5374286.4304   2418958.7352   5  28   2.0262   3.6671   1.7957  -2.0406   1.9632  -1.2063   0.00    0.0
2021/01/01 03:19:00.000  -2430579.5264   5374286.4649   2418958.7782   5  28   2.0281   3.6664   1.7980  -2.0419   1.9649  -1.2078   0.00    0.0
2021/01/01 03:19:30.000  -2430579.5399   5374286.6084   2418958.8240   5  28   2.0300   3.6657   1.8002  -2.0432   1.9666  -1.2093   0.00    0.0
2021/01/01 03:20:00.000  -2430579.5497   5374286.6243   2418958.8627   5  28   2.0319   3.6650   1.8024  -2.0444   1.9682  -1.2108   0.00    0.0
2021/01/01 03:20:30.000  -2430579.6207   5374286.6646   2418958.9127   5  28   2.0339   3.6643   1.8046  -2.0457   1.9698  -1.2123   0.00    0.0
2021/01/01 03:21:00.000  -2430579.6607   5374286.6334   2418958.8918   5  28   2.0358   3.6636   1.8068  -2.0469   1.9713  -1.2138   0.00    0.0
2021/01/01 03:21:30.000  -2430579.6612   5374286.5330   2418958.7296   5  28   2.0378   3.6628   1.8089  -2.0482   1.9728  -1.2153   0.00    0.0
2021/01/01 03:22:00.000  -2430579.6619   5374286.4994   2418958.5989   5  28   2.0397   3.6621   1.8111  -2.0494   1.9743  -1.2167   0.00    0.0
2021/01/01 03:22:30.000  -2430579.7593   5374286.9577   2418958.6425   5  27   2.1139   4.3545   1.8493  -2.3445   2.1820  -1.2974   0.00    0.0
2021/01/01 03:23:00.000  -2430579.7121   5374286.9290   2418958.6373   5  27   2.1165   4.3548   1.8520  -2.3470   2.1851  -1.2998   0.00    0.0
2021/01/01 03:23:30.000  -2430579.5708   5374286.6956   2418958.6358   5  27   2.1190   4.3550   1.8546  -2.3495   2.1882  -1.3022   0.00    0.0
2021/01/01 03:24:00.000  -2430579.4964   5374286.4708   2418958.6309   5  27   2.1216   4.3552   1.8573  -2.3520   2.1912  -1.3046   0.00    0.0
2021/01/01 03:24:30.000  -2430579.5361   5374286.4507   2418958.6935   5  27   2.1242   4.3552   1.8599  -2.3544   2.1941  -1.3069   0.00    0.0
