% program   : RTKLIB ver.demo5 b34g
% inp file  : ../example/hkws0010.21o
% inp file  : ../example/hksl0010.21o
% inp file  : ../example/brdm0010.21p
% obs start : 2021/01/01 00:00:00.0 GPST (week2138 432000.0s)
% obs end   : 2021/01/01 23:59:30.0 GPST (week2138 518370.0s)
% pos mode  : Static
% freqs     : L1+L2/E5b
% solution  : Forward
% elev mask : 10.0 deg
% dynamics  : off
% tidecorr  : on
% ionos opt : OFF
% tropo opt : OFF
% ephemeris : Broadcast
% navi sys  : GPS GLONASS Galileo
% amb res   : Continuous
% amb glo   : ON
% val thres : 2.0
% antenna1  :                       ( 0.0000  0.0000  0.0000)
% antenna2  :                       ( 0.0000  0.0000  0.0000)
% ref pos   : 22.372002595 113.927988472   95.2694
%
% (e/n/u-baseline=WGS84,Q=1:fix,2:float,3:sbas,4:dgps,5:single,6:ppp,ns=# of satellites)
%  GPST                  e-baseline(m)  n-baseline(m)  u-baseline(m)   Q  ns   sde(m)   sdn(m)   sdu(m)  sden(m)  sdnu(m)  sdue(m) age(s)  ratio
2021/01/01 00:00:00.000     41939.3322      6953.1538      -173.1464   1  15   0.0042   0.0040   0.0101   0.0006   0.0032   0.0002   0.00    2.8
2021/01/01 00:00:30.000     41939.3327      6953.1537      -173.1466   1  15   0.0029   0.0028   0.0071   0.0005   0.0023   0.0002   0.00    3.0
2021/01/01 00:01:00.000     41939.3324      6953.1534      -173.1467   1  15   0.0024   0.0023   0.0058   0.0004   0.0019   0.0002   0.00    3.1
2021/01/01 00:01:30.000     41939.3324      6953.1529      -173.1460   1  15   0.0021   0.0020   0.0050   0.0003   0.0016   0.0002   0.00    3.2
2021/01/01 00:02:00.000     41939.3323      6953.1522      -173.1446   1  15   0.0019   0.0018   0.0045   0.0003   0.0015   0.0002   0.00    3.2
2021/01/01 00:02:30.000     41939.3320      6953.1519      -173.1425   1  15   0.0017   0.0017   0.0041   0.0003   0.0013   0.0002   0.00    3.2
2021/01/01 00:03:00.000     41939.3322      6953.1513      -173.1416   1  15   0.0016   0.0015   0.0038   0.0003   0.0012   0.0002   0.00    3.3
2021/01/01 00:03:30.000     41939.3324      6953.1509      -173.1415   1  15   0.0015   0.0014   0.0035   0.0003   0.0011   0.0002   0.00    3.4
2021/01/01 00:04:00.000     41939.3324      6953.1507      -173.1409   1  15   0.0014   0.0014   0.0033   0.0003   0.0011   0.0002   0.00    3.4
2021/01/01 00:04:30.000     41939.3327      6953.1505      -173.1413   1  15   0.0013   0.0013   0.0032   0.0002   0.0010   0.0002   0.00    3.5
2021/01/01 00:05:00.000     41939.3328      6953.1504      -173.1409   1  15   0.0013   0.0012   0.0030   0.0002   0.0010   0.0002   0.00    3.5
2021/01/01 00:05:30.000     41939.3332      6953.1502      -173.1404   1  15   0.0012   0.0012   0.0029   0.0002   0.0009   0.0002   0.00    3.5
2021/01/01 00:06:00.000     41939.3334      6953.1502      -173.1398   1  15   0.0012   0.0011   0.0028   0.0002   0.0009   0.0002   0.00    3.6
2021/01/01 00:06:30.000     41939.3336      6953.1502      -173.1390   1  15   0.0011   0.0011   0.0027   0.0002   0.0009   0.0002   0.00    3.5
2021/01/01 00:07:00.000     41939.3339      6953.1503      -173.1383   1  15   0.0011   0.0011   0.0026   0.0002   0.0008   0.0002   0.00    3.6
2021/01/01 00:07:30.000     41939.3341      6953.1503      -173.1374   1  15   0.0011   0.0010   0.0025   0.0002   0.0008   0.0002   0.00    3.6
2021/01/01 00:08:00.000     41939.3341      6953.1503      -173.1371   1  15   0.0010   0.0010   0.0024   0.0002   0.0008   0.0002   0.00    3.7
2021/01/01 00:08:30.000     41939.3341      6953.1503      -173.1369   1  15   0.0010   0.0010   0.0024   0.0002   0.0008   0.0002   0.00    3.7
2021/01/01 00:09:00.000     41939.3341      6953.1501      -173.1365   1  15   0.0010   0.0009   0.0023   0.0002   0.0008   0.0002   0.00    3.8
2021/01/01 00:09:30.000     41939.3341      6953.1498      -173.1365   1  15   0.0010   0.0009   0.0022   0.0002   0.0007   0.0002   0.00    3.8
2021/01/01 00:10:00.000     41939.3341      6953.1495      -173.1365   1  15   0.0009   0.0009   0.0022   0.0002   0.0007   0.0002   0.00    3.8
2021/01/01 00:10:30.000     41939.3341      6953.1492      -173.1366   1  15   0.0009   0.0009   0.0021   0.0002   0.0007   0.0002   0.00    3.8
2021/01/01 00:11:00.000     41939.3339      6953.1489      -173.1372   1  15   0.0009   0.0009   0.0021   0.0002   0.0007   0.0002   0.00    3.8
2021/01/01 00:11:30.000     41939.3337      6953.1488      -173.1376   1  15   0.0009   0.0008   0.0020   0.0002   0.0007   0.0002   0.00    3.8
2021/01/01 00:12:00.000     41939.3334      6953.1486      -173.1379   1  15   0.0009   0.0008   0.0020   0.0002   0.0007   0.0002   0.00    3.8
2021/01/01 00:12:30.000     41939.3333      6953.1484      -173.1385   1  15   0.0008   0.0008   0.0020   0.0002   0.0007   0.0002   0.00    3.8
2021/01/01 00:13:00.000     41939.3330      6953.1483      -173.1389   1  15   0.0008   0.0008   0.0019   0.0002   0.0006   0.0002   0.00    3.9
2021/01/01 00:13:30.000     41939.3328      6953.1481      -173.1396   1  15   0.0008   0.0008   0.0019   0.0002   0.0006   0.0002   0.00    3.9
2021/01/01 00:14:00.000     41939.3326      6953.1479      -173.1403   1  15   0.0008   0.0008   0.0019   0.0002   0.0006   0.0002   0.00    3.9
2021/01/01 00:14:30.000     41939.3324      6953.1478      -173.1410   1  15   0.0008   0.0008   0.0018   0.0002   0.0006   0.0002   0.00    4.0
2021/01/01 00:15:00.000     41939.3322      6953.1479      -173.1414   1  15   0.0008   0.0008   0.0018   0.0002   0.0006   0.0002   0.00    4.1
2021/01/01 00:15:30.000     41939.3320      6953.1478      -173.1419   1  15   0.0008   0.0007   0.0018   0.0002   0.0006   0.0002   0.00    4.1
2021/01/01 00:16:00.000     41939.3318      6953.1478      -173.1427   1  15   0.0008   0.0007   0.0018   0.0002   0.0006   0.0002   0.00    4.1
2021/01/01 00:16:30.000     41939.3315      6953.1477      -173.1434   1  15   0.0008   0.0007   0.0017   0.0002   0.0006   0.0002   0.00    4.1
2021/01/01 00:17:00.000     41939.3313      6953.1477      -173.1442   1  15   0.0007   0.0007   0.0017   0.0002   0.0006   0.0002   0.00    4.1
2021/01/01 00:17:30.000     41939.3312      6953.1476      -173.1452   1  15   0.0007   0.0007   0.0017   0.0001   0.0006   0.0002   0.00    4.0
2021/01/01 00:18:00.000     41939.3310      6953.1474      -173.1459   1  15   0.0007   0.0007   0.0017   0.0001   0.0006   0.0002   0.00    4.0
2021/01/01 00:18:30.000     41939.3309      6953.1473      -173.1465   1  15   0.0007   0.0007   0.0016   0.0001   0.0006   0.0002   0.00    4.0
2021/01/01 00:19:00.000     41939.3309      6953.1472      -173.1471   1  15   0.0007   0.0007   0.0016   0.0001   0.0005   0.0002   0.00    4.0
2021/01/01 00:19:30.000     41939.3308      6953.1471      -173.1476   1  15   0.0007   0.0007   0.0016   0.0001   0.0005   0.0002   0.00    3.9
2021/01/01 00:20:00.000     41939.3308      6953.1468      -173.1480   1  15   0.0007   0.0007   0.0016   0.0001   0.0005   0.0002   0.00    3.9
2021/01/01 00:20:30.000     41939.3308      6953.1466      -173.1484   1  15   0.0007   0.0007   0.0016   0.0001   0.0005   0.0002   0.00    3.8
2021/01/01 00:21:00.000     41939.3308      6953.1463      -173.1489   1  15   0.0007   0.0007   0.0016   0.0001   0.0005   0.0002   0.00    3.8
2021/01/01 00:21:30.000     41939.3308      6953.1460      -173.1493   1  15   0.0007   0.0007   0.0015   0.0001   0.0005   0.0002   0.00    3.7
2021/01/01 00:22:00.000     41939.3308      6953.1458      -173.1495   1  15   0.0007   0.0007   0.0015   0.0001   0.0005   0.0002   0.00    3.7
2021/01/01 00:22:30.000     41939.3308      6953.1455      -173.1498   1  15   0.0007   0.0007   0.0015   0.0001   0.0005   0.0002   0.00    3.7
2021/01/01 00:23:00.000     41939.3308      6953.1452      -173.1501   1  15   0.0007   0.0006   0.0015   0.0001   0.0005   0.0002   0.00    3.7
2021/01/01 00:23:30.000     41939.3308      6953.1449      -173.1503   1  15   0.0007   0.0006   0.0015   0.0001   0.0005   0.0002   0.00    3.7
2021/01/01 00:24:00.000     41939.3308      6953.1445      -173.1504   1  15   0.0006   0.0006   0.0015   0.0001   0.0005   0.0002   0.00    3.7
2021/01/01 00:24:30.000     41939.3308      6953.1442      -173.1505   1  15   0.0006   0.0006   0.0015   0.0001   0.0005   0.0002   0.00    3.8
2021/01/01 00:25:00.000     41939.3308      6953.1440      -173.1506   1  15   0.0006   0.0006   0.0014   0.0001   0.0005   0.0002   0.00    3.8
2021/01/01 00:25:30.000     41939.3307      6953.1437      -173.1506   1  15   0.0006   0.0006   0.0014   0.0001   0.0005   0.0002   0.00    3.8
2021/01/01 00:26:00.000     41939.3307      6953.1434      -173.1508   1  15   0.0006   0.0006   0.0014   0.0001   0.0005   0.0002   0.00    3.9
2021/01/01 00:26:30.000     41939.3307      6953.1432      -173.1507   1  15   0.0006   0.0006   0.0014   0.0001   0.0005   0.0002   0.00    3.9
2021/01/01 00:27:00.000     41939.3307      6953.1430      -173.1507   1  15   0.0006   0.0006   0.0014   0.0001   0.0005   0.0002   0.00    3.9
2021/01/01 00:27:30.000     41939.3308      6953.1428      -173.1507   1  15   0.0006   0.0006   0.0014   0.0001   0.0005   0.0002   0.00    3.9
2021/01/01 00:28:00.000     41939.3309      6953.1426      -173.1505   1  15   0.0006   0.0006   0.0014   0.0001   0.0005   0.0002   0.00    3.9
2021/01/01 00:28:30.000     41939.3310      6953.1423      -173.1504   1  15   0.0006   0.0006   0.0014   0.0001   0.0005   0.0002   0.00    3.8
2021/01/01 00:29:00.000     41939.3311      6953.1420      -173.1504   1  15   0.0006   0.0006   0.0014   0.0001   0.0005   0.0002   0.00    3.8
2021/01/01 00:29:30.000     41939.3313      6953.1418      -173.1504   1  15   0.0006   0.0006   0.0014   0.0001   0.0005   0.0002   0.00    3.7
2021/01/01 00:30:00.000     41939.3315      6953.1416      -173.1502   1  15   0.0006   0.0006   0.0013   0.0001   0.0005   0.0002   0.00    3.6
2021/01/01 00:30:30.000     41939.3317      6953.1414      -173.1499   1  16   0.0006   0.0006   0.0013   0.0001   0.0005   0.0002   0.00    3.6
2021/01/01 00:31:00.000     41939.3319      6953.1412      -173.1498   1  16   0.0006   0.0006   0.0013   0.0001   0.0005   0.0002   0.00    3.5
2021/01/01 00:31:30.000     41939.3320      6953.1410      -173.1497   1  16   0.0006   0.0006   0.0013   0.0001   0.0004   0.0002   0.00    3.5
2021/01/01 00:32:00.000     41939.3321      6953.1409      -173.1496   1  16   0.0006   0.0006   0.0013   0.0001   0.0004   0.0002   0.00    3.5
2021/01/01 00:32:30.000     41939.3322      6953.1407      -173.1495   1  16   0.0006   0.0006   0.0013   0.0001   0.0004   0.0002   0.00    3.5
2021/01/01 00:33:00.000     41939.3323      6953.1405      -173.1496   1  16   0.0006   0.0006   0.0013   0.0001   0.0004   0.0002   0.00    3.4
2021/01/01 00:33:30.000     41939.3323      6953.1404      -173.1499   1  16   0.0006   0.0006   0.0013   0.0001   0.0004   0.0002   0.00    3.4
2021/01/01 00:34:00.000     41939.3323      6953.1402      -173.1503   1  16   0.0006   0.0006   0.0013   0.0001   0.0004   0.0002   0.00    3.4
2021/01/01 00:34:30.000     41939.3323      6953.1401      -173.1507   1  16   0.0006   0.0006   0.0013   0.0001   0.0004   0.0002   0.00    3.4
2021/01/01 00:35:00.000     41939.3323      6953.1400      -173.1511   1  16   0.0006   0.0006   0.0013   0.0001   0.0004   0.0002   0.00    3.5
2021/01/01 00:35:30.000     41939.3321      6953.1399      -173.1516   1  16   0.0006   0.0006   0.0013   0.0001   0.0004   0.0002   0.00    3.5
2021/01/01 00:36:00.000     41939.3320      6953.1398      -173.1521   1  16   0.0006   0.0006   0.0013   0.0001   0.0004   0.0002   0.00    3.5
2021/01/01 00:36:30.000     41939.3319      6953.1398      -173.1526   1  16   0.0006   0.0006   0.0013   0.0001   0.0004   0.0002   0.00    3.6
2021/01/01 00:37:00.000     41939.3319      6953.1397      -173.1529   1  17   0.0006   0.0006   0.0012   0.0001   0.0004   0.0002   0.00    3.6
2021/01/01 00:37:30.000     41939.3319      6953.1395      -173.1531   1  17   0.0006   0.0006   0.0012   0.0001   0.0004   0.0002   0.00    3.6
2021/01/01 00:38:00.000     41939.3319      6953.1394      -173.1533   1  17   0.0006   0.0006   0.0012   0.0001   0.0004   0.0002   0.00    3.6
2021/01/01 00:38:30.000     41939.3320      6953.1392      -173.1534   1  17   0.0006   0.0006   0.0012   0.0001   0.0004   0.0002   0.00    3.6
2021/01/01 00:39:00.000     41939.3321      6953.1391      -173.1535   1  17   0.0006   0.0006   0.0012   0.0001   0.0004   0.0002   0.00    3.5
2021/01/01 00:39:30.000     41939.3322      6953.1389      -173.1535   1  17   0.0006   0.0006   0.0012   0.0001   0.0004   0.0002   0.00    3.5
2021/01/01 00:40:00.000     41939.3324      6953.1387      -173.1534   1  17   0.0006   0.0006   0.0012   0.0001   0.0004   0.0002   0.00    3.4
2021/01/01 00:40:30.000     41939.3327      6953.1386      -173.1534   1  17   0.0006   0.0005   0.0012   0.0001   0.0004   0.0002   0.00    3.3
2021/01/01 00:41:00.000     41939.3329      6953.1384      -173.1534   1  17   0.0006   0.0005   0.0012   0.0001   0.0004   0.0002   0.00    3.2
2021/01/01 00:41:30.000     41939.3338      6953.1370      -173.1545   1  17   0.0005   0.0005   0.0012   0.0001   0.0004   0.0003   0.00    2.0
2021/01/01 00:42:00.000     41939.3339      6953.1368      -173.1546   1  17   0.0005   0.0005   0.0012   0.0001   0.0004   0.0003   0.00    2.0
2021/01/01 00:42:30.000     41939.3341      6953.1366      -173.1547   1  17   0.0005   0.0005   0.0012   0.0001   0.0004   0.0003   0.00    2.1
2021/01/01 00:43:00.000     41939.3343      6953.1364      -173.1550   1  17   0.0005   0.0005   0.0012   0.0001   0.0004   0.0003   0.00    2.1
2021/01/01 00:43:30.000     41939.3353      6953.1364      -173.1559   1  16   0.0006   0.0005   0.0012   0.0001   0.0004   0.0002   0.00    2.2
2021/01/01 00:44:00.000     41939.3360      6953.1363      -173.1576   1  15   0.0006   0.0005   0.0012   0.0001   0.0004   0.0002   0.00    2.3
2021/01/01 00:44:30.000     41939.3376      6953.1342      -173.1600   1  15   0.0006   0.0005   0.0012   0.0002   0.0004   0.0002   0.00    2.0
2021/01/01 00:45:00.000     41939.3377      6953.1340      -173.1603   1  14   0.0006   0.0005   0.0012   0.0002   0.0004   0.0002   0.00    2.1
2021/01/01 00:45:30.000     41939.3376      6953.1339      -173.1609   1  14   0.0006   0.0005   0.0012   0.0002   0.0004   0.0002   0.00    2.0
2021/01/01 00:46:00.000     41939.3377      6953.1338      -173.1608   1  15   0.0006   0.0005   0.0012   0.0002   0.0004   0.0002   0.00    2.1
2021/01/01 00:46:30.000     41939.3378      6953.1337      -173.1610   1  15   0.0006   0.0005   0.0012   0.0002   0.0004   0.0002   0.00    2.1
2021/01/01 00:47:00.000     41939.3378      6953.1337      -173.1612   1  15   0.0006   0.0005   0.0012   0.0002   0.0004   0.0002   0.00    2.1
2021/01/01 00:47:30.000     41939.3377      6953.1337      -173.1613   1  15   0.0006   0.0005   0.0012   0.0002   0.0004   0.0002   0.00    2.2
2021/01/01 00:48:00.000     41939.3377      6953.1336      -173.1615   1  15   0.0006   0.0005   0.0012   0.0002   0.0004   0.0002   0.00    2.2
2021/01/01 00:48:30.000     41939.3376      6953.1336      -173.1616   1  15   0.0006   0.0005   0.0012   0.0002   0.0003   0.0002   0.00    2.2
2021/01/01 00:49:00.000     41939.3376      6953.1336      -173.1616   1  15   0.0005   0.0005   0.0012   0.0002   0.0003   0.0002   0.00    2.2
2021/01/01 00:49:30.000     41939.3376      6953.1337      -173.1617   1  15   0.0005   0.0005   0.0012   0.0002   0.0003   0.0002   0.00    2.3
2021/01/01 00:50:00.000     41939.3375      6953.1337      -173.1617   1  15   0.0005   0.0005   0.0012   0.0002   0.0003   0.0002   0.00    2.3
2021/01/01 00:50:30.000     41939.3375      6953.1337      -173.1618   1  15   0.0005   0.0005   0.0012   0.0002   0.0003   0.0002   0.00    2.3
2021/01/01 00:51:00.000     41939.3374      6953.1338      -173.1618   1  15   0.0005   0.0005   0.0012   0.0002   0.0003   0.0002   0.00    2.4
2021/01/01 00:51:30.000     41939.3374      6953.1338      -173.1619   1  15   0.0005   0.0005   0.0012   0.0002   0.0003   0.0002   0.00    2.4
2021/01/01 00:52:00.000     41939.3374      6953.1339      -173.1620   1  15   0.0005   0.0005   0.0012   0.0002   0.0003   0.0002   0.00    2.4
2021/01/01 00:52:30.000     41939.3373      6953.1339      -173.1622   1  16   0.0005   0.0005   0.0012   0.0002   0.0003   0.0002   0.00    2.3
2021/01/01 00:53:00.000     41939.3373      6953.1339      -173.1623   1  16   0.0005   0.0005   0.0012   0.0002   0.0003   0.0002   0.00    2.3
2021/01/01 00:53:30.000     41939.3396      6953.1351      -173.1668   1  15   0.0006   0.0005   0.0012   0.0002   0.0003  -0.0001   0.00    2.4
2021/01/01 00:54:00.000     41939.3395      6953.1351      -173.1669   1  15   0.0006   0.0005   0.0012   0.0002   0.0003  -0.0001   0.00    2.3
2021/01/01 00:54:30.000     41939.3394      6953.1351      -173.1671   1  15   0.0006   0.0005   0.0012   0.0002   0.0003  -0.0001   0.00    2.3
2021/01/01 00:55:00.000     41939.3393      6953.1352      -173.1672   1  16   0.0006   0.0005   0.0012   0.0002   0.0003  -0.0001   0.00    2.3
2021/01/01 00:55:30.000     41939.3392      6953.1352      -173.1672   1  16   0.0006   0.0005   0.0012   0.0002   0.0003  -0.0001   0.00    2.3
2021/01/01 00:56:00.000     41939.3391      6953.1353      -173.1672   1  16   0.0006   0.0005   0.0012   0.0002   0.0003  -0.0001   0.00    2.3
2021/01/01 00:56:30.000     41939.3390      6953.1355      -173.1673   1  16   0.0006   0.0005   0.0012   0.0002   0.0003  -0.0001   0.00    2.3
2021/01/01 00:57:00.000     41939.3388      6953.1356      -173.1673   1  16   0.0006   0.0005   0.0012   0.0002   0.0003  -0.0001   0.00    2.3
2021/01/01 00:57:30.000     41939.3387      6953.1358      -173.1673   1  16   0.0006   0.0005   0.0012   0.0002   0.0003  -0.0000   0.00    2.3
2021/01/01 00:58:00.000     41939.3386      6953.1361      -173.1673   1  16   0.0006   0.0005   0.0012   0.0002   0.0003   0.0000   0.00    2.4
2021/01/01 00:58:30.000     41939.3383      6953.1363      -173.1680   1  16   0.0006   0.0005   0.0012   0.0002   0.0003  -0.0001   0.00    2.4
2021/01/01 00:59:00.000     41939.3382      6953.1365      -173.1681   1  16   0.0006   0.0005   0.0012   0.0002   0.0003  -0.0001   0.00    2.4
2021/01/01 00:59:30.000     41939.3381      6953.1368      -173.1682   1  16   0.0006   0.0005   0.0012   0.0002   0.0003  -0.0001   0.00    2.4
2021/01/01 01:00:00.000     41939.3381      6953.1370      -173.1682   1  16   0.0006   0.0005   0.0012   0.0002   0.0003  -0.0001   0.00    2.5
2021/01/01 01:00:30.000     41939.3381      6953.1372      -173.1682   1  16   0.0006   0.0005   0.0012   0.0002   0.0003  -0.0001   0.00    2.5
2021/01/01 01:01:00.000     41939.3381      6953.1374      -173.1683   1  16   0.0006   0.0005   0.0012   0.0002   0.0003  -0.0001   0.00    2.5
2021/01/01 01:01:30.000     41939.3382      6953.1376      -173.1683   1  16   0.0005   0.0005   0.0012   0.0002   0.0003  -0.0001   0.00    2.5
2021/01/01 01:02:00.000     41939.3383      6953.1378      -173.1683   1  16   0.0005   0.0005   0.0012   0.0002   0.0003  -0.0001   0.00    2.5
2021/01/01 01:02:30.000     41939.3384      6953.1380      -173.1682   1  16   0.0005   0.0005   0.0012   0.0002   0.0003  -0.0001   0.00    2.5
2021/01/01 01:03:00.000     41939.3385      6953.1382      -173.1683   1  16   0.0005   0.0005   0.0012   0.0002   0.0003  -0.0001   0.00    2.5
2021/01/01 01:03:30.000     41939.3387      6953.1383      -173.1683   1  16   0.0005   0.0005   0.0012   0.0002   0.0003  -0.0001   0.00    2.4
2021/01/01 01:04:00.000     41939.3389      6953.1385      -173.1682   1  16   0.0005   0.0005   0.0012   0.0002   0.0003  -0.0001   0.00    2.4
2021/01/01 01:04:30.000     41939.3392      6953.1387      -173.1682   1  16   0.0005   0.0005   0.0012   0.0002   0.0003  -0.0001   0.00    2.4
2021/01/01 01:05:00.000     41939.3394      6953.1389      -173.1681   1  16   0.0005   0.0005   0.0012   0.0002   0.0003  -0.0001   0.00    2.4
2021/01/01 01:05:30.000     41939.3396      6953.1390      -173.1680   1  16   0.0005   0.0005   0.0012   0.0002   0.0003  -0.0001   0.00    2.4
2021/01/01 01:06:00.000     41939.3436      6953.1459      -173.1561   1  15   0.0006   0.0006   0.0014   0.0004   0.0006   0.0004   0.00    2.9
2021/01/01 01:06:30.000     41939.3439      6953.1461      -173.1558   1  15   0.0006   0.0006   0.0014   0.0004   0.0006   0.0004   0.00    2.9
2021/01/01 01:07:00.000     41939.3544      6953.1381      -173.1896   1  14   0.0007   0.0007   0.0017   0.0002   0.0008  -0.0004   0.00    7.2
2021/01/01 01:07:30.000     41939.3538      6953.1362      -173.1954   1  14   0.0007   0.0006   0.0016   0.0001   0.0007  -0.0005   0.00    3.8
2021/01/01 01:08:00.000     41939.3539      6953.1363      -173.1956   1  14   0.0007   0.0006   0.0016   0.0001   0.0007  -0.0005   0.00    4.0
2021/01/01 01:08:30.000     41939.3540      6953.1363      -173.1957   1  14   0.0006   0.0006   0.0016   0.0001   0.0007  -0.0005   0.00    4.1
2021/01/01 01:09:00.000     41939.3541      6953.1363      -173.1958   1  14   0.0006   0.0006   0.0016   0.0001   0.0007  -0.0005   0.00    4.3
2021/01/01 01:09:30.000     41939.3542      6953.1364      -173.1959   1  14   0.0006   0.0006   0.0016   0.0001   0.0007  -0.0005   0.00    4.5
2021/01/01 01:10:00.000     41939.3544      6953.1364      -173.1961   1  14   0.0006   0.0006   0.0016   0.0001   0.0007  -0.0005   0.00    4.7
2021/01/01 01:10:30.000     41939.3544      6953.1363      -173.1963   1  14   0.0006   0.0006   0.0016   0.0001   0.0007  -0.0005   0.00    4.8
2021/01/01 01:11:00.000     41939.3545      6953.1363      -173.1966   1  14   0.0006   0.0006   0.0016   0.0001   0.0007  -0.0005   0.00    4.9
2021/01/01 01:11:30.000     41939.3546      6953.1361      -173.1970   1  14   0.0006   0.0006   0.0016   0.0001   0.0007  -0.0005   0.00    5.0
2021/01/01 01:12:00.000     41939.3546      6953.1360      -173.1973   1  14   0.0006   0.0006   0.0015   0.0001   0.0007  -0.0005   0.00    5.1
2021/01/01 01:12:30.000     41939.3547      6953.1359      -173.1978   1  14   0.0006   0.0006   0.0015   0.0001   0.0007  -0.0005   0.00    5.1
2021/01/01 01:13:00.000     41939.3548      6953.1358      -173.1983   1  14   0.0006   0.0006   0.0015   0.0001   0.0007  -0.0005   0.00    5.2
2021/01/01 01:13:30.000     41939.3549      6953.1356      -173.1988   1  14   0.0006   0.0006   0.0015   0.0001   0.0007  -0.0005   0.00    5.3
2021/01/01 01:14:00.000     41939.3549      6953.1354      -173.1992   1  14   0.0006   0.0006   0.0015   0.0000   0.0006  -0.0005   0.00    5.2
2021/01/01 01:14:30.000     41939.3549      6953.1353      -173.1996   1  14   0.0006   0.0006   0.0015   0.0000   0.0006  -0.0005   0.00    5.3
2021/01/01 01:15:00.000     41939.3549      6953.1352      -173.2001   1  14   0.0006   0.0006   0.0015  -0.0000   0.0006  -0.0005   0.00    5.3
2021/01/01 01:15:30.000     41939.3549      6953.1352      -173.2005   1  14   0.0006   0.0006   0.0015  -0.0000   0.0006  -0.0005   0.00    5.3
2021/01/01 01:16:00.000     41939.3549      6953.1351      -173.2009   1  14   0.0006   0.0006   0.0015  -0.0000   0.0006  -0.0005   0.00    5.2
2021/01/01 01:16:30.000     41939.3548      6953.1351      -173.2013   1  14   0.0006   0.0006   0.0015  -0.0001   0.0006  -0.0005   0.00    5.1
2021/01/01 01:17:00.000     41939.3547      6953.1350      -173.2016   1  14   0.0006   0.0006   0.0015  -0.0001   0.0006  -0.0005   0.00    5.0
2021/01/01 01:17:30.000     41939.3546      6953.1350      -173.2018   1  14   0.0006   0.0006   0.0015  -0.0001   0.0006  -0.0005   0.00    4.9
2021/01/01 01:18:00.000     41939.3545      6953.1350      -173.2019   1  14   0.0006   0.0006   0.0015  -0.0001   0.0006  -0.0005   0.00    4.9
2021/01/01 01:18:30.000     41939.3544      6953.1349      -173.2020   1  14   0.0006   0.0006   0.0015  -0.0001   0.0006  -0.0005   0.00    4.8
2021/01/01 01:19:00.000     41939.3543      6953.1349      -173.2020   1  14   0.0006   0.0006   0.0015  -0.0001   0.0006  -0.0005   0.00    4.7
2021/01/01 01:19:30.000     41939.3541      6953.1348      -173.2020   1  14   0.0006   0.0006   0.0015  -0.0001   0.0006  -0.0005   0.00    4.6
2021/01/01 01:20:00.000     41939.3540      6953.1347      -173.2021   1  14   0.0006   0.0006   0.0015  -0.0001   0.0006  -0.0005   0.00    4.5
2021/01/01 01:20:30.000     41939.3540      6953.1346      -173.2021   1  14   0.0006   0.0006   0.0014  -0.0001   0.0006  -0.0005   0.00    4.4
2021/01/01 01:21:00.000     41939.3540      6953.1345      -173.2021   1  14   0.0006   0.0006   0.0014  -0.0001   0.0006  -0.0005   0.00    4.4
2021/01/01 01:21:30.000     41939.3540      6953.1344      -173.2022   1  14   0.0006   0.0006   0.0014  -0.0001   0.0006  -0.0005   0.00    4.3
2021/01/01 01:22:00.000     41939.3540      6953.1343      -173.2023   1  15   0.0006   0.0006   0.0014  -0.0001   0.0006  -0.0005   0.00    4.3
2021/01/01 01:22:30.000     41939.3540      6953.1341      -173.2025   1  15   0.0006   0.0006   0.0014  -0.0001   0.0006  -0.0005   0.00    4.2
2021/01/01 01:23:00.000     41939.3541      6953.1339      -173.2027   1  15   0.0006   0.0006   0.0014  -0.0001   0.0006  -0.0005   0.00    4.2
2021/01/01 01:23:30.000     41939.3542      6953.1337      -173.2029   1  15   0.0006   0.0006   0.0014  -0.0001   0.0006  -0.0005   0.00    4.2
2021/01/01 01:24:00.000     41939.3542      6953.1335      -173.2029   1  15   0.0006   0.0006   0.0014  -0.0001   0.0006  -0.0005   0.00    4.1
2021/01/01 01:24:30.000     41939.3542      6953.1333      -173.2029   1  15   0.0006   0.0006   0.0014  -0.0001   0.0006  -0.0005   0.00    4.1
2021/01/01 01:25:00.000     41939.3542      6953.1332      -173.2026   1  15   0.0006   0.0006   0.0014  -0.0001   0.0006  -0.0005   0.00    4.0
2021/01/01 01:25:30.000     41939.3542      6953.1330      -173.2023   1  15   0.0006   0.0006   0.0014  -0.0001   0.0006  -0.0005   0.00    4.0
2021/01/01 01:26:00.000     41939.3542      6953.1329      -173.2019   1  15   0.0006   0.0006   0.0014  -0.0001   0.0006  -0.0005   0.00    4.0
2021/01/01 01:26:30.000     41939.3542      6953.1328      -173.2013   1  15   0.0006   0.0006   0.0014  -0.0001   0.0006  -0.0005   0.00    3.9
2021/01/01 01:27:00.000     41939.3542      6953.1328      -173.2007   1  15   0.0006   0.0006   0.0014  -0.0001   0.0006  -0.0005   0.00    3.9
2021/01/01 01:27:30.000     41939.3541      6953.1328      -173.2000   1  15   0.0006   0.0006   0.0014  -0.0001   0.0006  -0.0005   0.00    3.9
2021/01/01 01:28:00.000     41939.3544      6953.1311      -173.2013   1  15   0.0006   0.0006   0.0014  -0.0002   0.0006  -0.0005   0.00    4.0
2021/01/01 01:28:30.000     41939.3544      6953.1311      -173.2004   1  15   0.0006   0.0006   0.0014  -0.0002   0.0006  -0.0005   0.00    3.9
2021/01/01 01:29:00.000     41939.3484      6953.1397      -173.1765   1  15   0.0005   0.0005   0.0012   0.0002   0.0004  -0.0003   0.00    2.1
2021/01/01 01:29:30.000     41939.3484      6953.1396      -173.1757   1  15   0.0005   0.0005   0.0012   0.0002   0.0004  -0.0003   0.00    2.1
2021/01/01 01:30:00.000     41939.3483      6953.1395      -173.1749   1  15   0.0005   0.0005   0.0012   0.0002   0.0004  -0.0003   0.00    2.1
2021/01/01 01:30:30.000     41939.3481      6953.1395      -173.1738   1  15   0.0005   0.0005   0.0012   0.0001   0.0004  -0.0003   0.00    2.1
2021/01/01 01:31:00.000     41939.3479      6953.1395      -173.1728   1  15   0.0005   0.0005   0.0012   0.0001   0.0004  -0.0003   0.00    2.1
2021/01/01 01:31:30.000     41939.3476      6953.1394      -173.1717   1  15   0.0005   0.0005   0.0012   0.0001   0.0004  -0.0003   0.00    2.1
2021/01/01 01:32:00.000     41939.3474      6953.1394      -173.1705   1  15   0.0005   0.0005   0.0011   0.0001   0.0003  -0.0003   0.00    2.1
2021/01/01 01:32:30.000     41939.3471      6953.1394      -173.1694   1  15   0.0005   0.0005   0.0011   0.0001   0.0003  -0.0003   0.00    2.1
2021/01/01 01:33:00.000     41939.3469      6953.1394      -173.1685   1  15   0.0005   0.0005   0.0011   0.0001   0.0003  -0.0003   0.00    2.0
2021/01/01 01:33:30.000     41939.3466      6953.1392      -173.1677   1  15   0.0005   0.0005   0.0011   0.0001   0.0003  -0.0003   0.00    2.0
2021/01/01 01:34:00.000     41939.3464      6953.1390      -173.1671   1  15   0.0005   0.0005   0.0011   0.0001   0.0003  -0.0003   0.00    2.0
2021/01/01 01:34:30.000     41939.3574      6953.1439      -173.1932   2  15   0.0024   0.0012   0.0021  -0.0008  -0.0005   0.0003   0.00    2.0
2021/01/01 01:35:00.000     41939.3568      6953.1435      -173.1942   2  15   0.0024   0.0012   0.0021  -0.0008  -0.0005   0.0003   0.00    1.0
2021/01/01 01:35:30.000     41939.3562      6953.1433      -173.1954   2  15   0.0023   0.0012   0.0021  -0.0008  -0.0005   0.0002   0.00    1.0
2021/01/01 01:36:00.000     41939.3555      6953.1431      -173.1966   2  15   0.0023   0.0012   0.0021  -0.0008  -0.0005   0.0002   0.00    1.0
2021/01/01 01:36:30.000     41939.3547      6953.1430      -173.1980   2  15   0.0023   0.0012   0.0021  -0.0008  -0.0005   0.0002   0.00    1.0
2021/01/01 01:37:00.000     41939.3538      6953.1430      -173.1993   2  15   0.0023   0.0012   0.0021  -0.0008  -0.0005   0.0002   0.00    1.0
2021/01/01 01:37:30.000     41939.3531      6953.1430      -173.2003   2  15   0.0023   0.0012   0.0021  -0.0008  -0.0005   0.0001   0.00    1.0
2021/01/01 01:38:00.000     41939.3523      6953.1430      -173.2012   2  15   0.0023   0.0012   0.0020  -0.0008  -0.0005   0.0001   0.00    1.0
2021/01/01 01:38:30.000     41939.3515      6953.1431      -173.2020   2  15   0.0023   0.0012   0.0020  -0.0008  -0.0005   0.0001   0.00    1.2
2021/01/01 01:39:00.000     41939.3507      6953.1432      -173.2027   2  15   0.0023   0.0012   0.0020  -0.0008  -0.0005  -0.0001   0.00    1.2
2021/01/01 01:39:30.000     41939.3501      6953.1432      -173.2034   2  15   0.0022   0.0011   0.0020  -0.0008  -0.0004  -0.0001   0.00    1.0
2021/01/01 01:40:00.000     41939.3496      6953.1433      -173.2041   2  15   0.0022   0.0011   0.0020  -0.0008  -0.0004  -0.0001   0.00    1.1
2021/01/01 01:40:30.000     41939.3494      6953.1433      -173.2049   2  15   0.0022   0.0011   0.0020  -0.0008  -0.0004  -0.0002   0.00    1.0
2021/01/01 01:41:00.000     41939.3490      6953.1433      -173.2059   2  15   0.0022   0.0011   0.0020  -0.0008  -0.0004  -0.0002   0.00    1.0
2021/01/01 01:41:30.000     41939.3487      6953.1433      -173.2068   2  15   0.0022   0.0011   0.0020  -0.0007  -0.0004  -0.0002   0.00    1.0
2021/01/01 01:42:00.000     41939.3486      6953.1432      -173.2078   2  15   0.0022   0.0011   0.0020  -0.0007  -0.0004  -0.0002   0.00    1.0
2021/01/01 01:42:30.000     41939.3484      6953.1431      -173.2090   2  15   0.0022   0.0011   0.0019  -0.0007  -0.0004  -0.0002   0.00    1.0
2021/01/01 01:43:00.000     41939.3483      6953.1429      -173.2102   2  15   0.0022   0.0011   0.0019  -0.0007  -0.0004  -0.0002   0.00    1.0
2021/01/01 01:43:30.000     41939.3481      6953.1427      -173.2113   2  15   0.0021   0.0011   0.0019  -0.0007  -0.0004  -0.0003   0.00    1.0
2021/01/01 01:44:00.000     41939.3479      6953.1424      -173.2126   2  15   0.0021   0.0011   0.0019  -0.0007  -0.0004  -0.0003   0.00    1.0
2021/01/01 01:44:30.000     41939.3476      6953.1422      -173.2136   2  15   0.0021   0.0011   0.0019  -0.0007  -0.0004  -0.0003   0.00    1.0
2021/01/01 01:45:00.000     41939.3473      6953.1419      -173.2146   2  15   0.0021   0.0011   0.0019  -0.0007  -0.0004  -0.0003   0.00    1.1
2021/01/01 01:45:30.000     41939.3470      6953.1415      -173.2157   2  15   0.0021   0.0011   0.0019  -0.0007  -0.0004  -0.0003   0.00    1.1
2021/01/01 01:46:00.000     41939.3468      6953.1412      -173.2165   2  16   0.0021   0.0011   0.0019  -0.0007  -0.0004  -0.0003   0.00    1.0
2021/01/01 01:46:30.000     41939.3467      6953.1407      -173.2172   2  16   0.0021   0.0011   0.0019  -0.0007  -0.0004  -0.0003   0.00    1.0
2021/01/01 01:47:00.000     41939.3466      6953.1403      -173.2177   2  16   0.0021   0.0011   0.0019  -0.0007  -0.0004  -0.0003   0.00    1.0
2021/01/01 01:47:30.000     41939.3466      6953.1398      -173.2180   2  16   0.0021   0.0011   0.0019  -0.0007  -0.0004  -0.0003   0.00    1.0
2021/01/01 01:48:00.000     41939.3467      6953.1393      -173.2184   2  16   0.0021   0.0010   0.0018  -0.0007  -0.0004  -0.0003   0.00    1.0
2021/01/01 01:48:30.000     41939.3469      6953.1387      -173.2186   2  16   0.0021   0.0010   0.0018  -0.0007  -0.0004  -0.0003   0.00    1.0
2021/01/01 01:49:00.000     41939.3471      6953.1381      -173.2190   2  16   0.0020   0.0010   0.0018  -0.0007  -0.0004  -0.0004   0.00    1.0
2021/01/01 01:49:30.000     41939.3473      6953.1375      -173.2196   2  16   0.0020   0.0010   0.0018  -0.0007  -0.0004  -0.0004   0.00    1.0
2021/01/01 01:50:00.000     41939.3475      6953.1370      -173.2203   2  16   0.0020   0.0010   0.0018  -0.0006  -0.0004  -0.0004   0.00    1.1
2021/01/01 01:50:30.000     41939.3476      6953.1366      -173.2213   2  16   0.0020   0.0010   0.0018  -0.0006  -0.0004  -0.0004   0.00    1.0
2021/01/01 01:51:00.000     41939.3476      6953.1362      -173.2224   2  16   0.0020   0.0010   0.0018  -0.0006  -0.0004  -0.0004   0.00    1.0
2021/01/01 01:51:30.000     41939.3476      6953.1359      -173.2237   2  16   0.0020   0.0010   0.0018  -0.0006  -0.0004  -0.0004   0.00    1.0
2021/01/01 01:52:00.000     41939.3476      6953.1356      -173.2251   2  16   0.0020   0.0010   0.0018  -0.0006  -0.0004  -0.0004   0.00    1.0
2021/01/01 01:52:30.000     41939.3476      6953.1354      -173.2264   2  16   0.0020   0.0010   0.0018  -0.0006  -0.0004  -0.0004   0.00    1.0
2021/01/01 01:53:00.000     41939.3476      6953.1352      -173.2276   2  16   0.0020   0.0010   0.0018  -0.0006  -0.0004  -0.0004   0.00    1.0
2021/01/01 01:53:30.000     41939.3478      6953.1351      -173.2287   2  16   0.0020   0.0010   0.0017  -0.0006  -0.0004  -0.0004   0.00    1.0
2021/01/01 01:54:00.000     41939.3480      6953.1351      -173.2296   2  16   0.0020   0.0010   0.0017  -0.0006  -0.0004  -0.0004   0.00    1.0
2021/01/01 01:54:30.000     41939.3483      6953.1351      -173.2304   2  16   0.0019   0.0010   0.0017  -0.0006  -0.0004  -0.0004   0.00    1.0
2021/01/01 01:55:00.000     41939.3487      6953.1351      -173.2311   2  16   0.0019   0.0010   0.0017  -0.0006  -0.0004  -0.0004   0.00    1.0
2021/01/01 01:55:30.000     41939.3490      6953.1352      -173.2317   2  16   0.0019   0.0010   0.0017  -0.0006  -0.0004  -0.0004   0.00    1.1
2021/01/01 01:56:00.000     41939.3494      6953.1353      -173.2320   2  16   0.0019   0.0010   0.0017  -0.0006  -0.0004  -0.0004   0.00    1.0
2021/01/01 01:56:30.000     41939.3498      6953.1354      -173.2322   2  16   0.0019   0.0010   0.0017  -0.0006  -0.0004  -0.0004   0.00    1.0
2021/01/01 01:57:00.000     41939.3500      6953.1355      -173.2324   2  16   0.0019   0.0010   0.0017  -0.0006  -0.0004  -0.0004   0.00    1.0
2021/01/01 01:57:30.000     41939.3502      6953.1356      -173.2325   2  16   0.0019   0.0010   0.0017  -0.0006  -0.0004  -0.0004   0.00    1.0
2021/01/01 01:58:00.000     41939.3505      6953.1357      -173.2326   2  16   0.0019   0.0010   0.0017  -0.0006  -0.0004  -0.0004   0.00    1.0
2021/01/01 01:58:30.000     41939.3509      6953.1358      -173.2324   2  16   0.0019   0.0009   0.0017  -0.0006  -0.0004  -0.0004   0.00    1.3
2021/01/01 01:59:00.000     41939.3512      6953.1359      -173.2322   2  16   0.0019   0.0009   0.0017  -0.0006  -0.0004  -0.0004   0.00    1.0
2021/01/01 01:59:30.000     41939.3515      6953.1360      -173.2319   2  16   0.0019   0.0009   0.0017  -0.0005  -0.0004  -0.0004   0.00    1.0
2021/01/01 02:00:00.000     41939.3519      6953.1360      -173.2316   2  16   0.0019   0.0009   0.0016  -0.0005  -0.0004  -0.0004   0.00    1.1
2021/01/01 02:00:30.000     41939.3524      6953.1361      -173.2313   2  16   0.0019   0.0009   0.0016  -0.0005  -0.0004  -0.0004   0.00    1.0
2021/01/01 02:01:00.000     41939.3529      6953.1361      -173.2309   2  16   0.0019   0.0009   0.0016  -0.0005  -0.0004  -0.0004   0.00    1.0
2021/01/01 02:01:30.000     41939.3535      6953.1361      -173.2304   2  16   0.0018   0.0009   0.0016  -0.0005  -0.0004  -0.0004   0.00    1.0
2021/01/01 02:02:00.000     41939.3541      6953.1360      -173.2300   2  16   0.0018   0.0009   0.0016  -0.0005  -0.0004  -0.0005   0.00    1.0
2021/01/01 02:02:30.000     41939.3549      6953.1359      -173.2295   2  16   0.0018   0.0009   0.0016  -0.0005  -0.0004  -0.0005   0.00    1.1
2021/01/01 02:03:00.000     41939.3557      6953.1357      -173.2291   2  16   0.0018   0.0009   0.0016  -0.0005  -0.0004  -0.0005   0.00    1.1
2021/01/01 02:03:30.000     41939.3567      6953.1356      -173.2288   2  16   0.0018   0.0009   0.0016  -0.0005  -0.0004  -0.0005   0.00    1.1
2021/01/01 02:04:00.000     41939.3577      6953.1354      -173.2287   2  16   0.0018   0.0009   0.0016  -0.0005  -0.0004  -0.0005   0.00    1.1
2021/01/01 02:04:30.000     41939.3588      6953.1352      -173.2285   2  16   0.0018   0.0009   0.0016  -0.0005  -0.0004  -0.0005   0.00    1.0
2021/01/01 02:05:00.000     41939.3597      6953.1352      -173.2286   2  16   0.0018   0.0009   0.0016  -0.0005  -0.0004  -0.0005   0.00    1.1
2021/01/01 02:05:30.000     41939.3605      6953.1352      -173.2288   2  16   0.0018   0.0009   0.0016  -0.0005  -0.0004  -0.0005   0.00    1.1
2021/01/01 02:06:00.000     41939.3612      6953.1352      -173.2290   2  16   0.0018   0.0009   0.0016  -0.0005  -0.0004  -0.0005   0.00    1.1
2021/01/01 02:06:30.000     41939.3616      6953.1354      -173.2294   2  16   0.0018   0.0009   0.0016  -0.0005  -0.0004  -0.0005   0.00    1.5
2021/01/01 02:07:00.000     41939.3618      6953.1357      -173.2301   2  16   0.0018   0.0009   0.0015  -0.0005  -0.0004  -0.0005   0.00    1.1
2021/01/01 02:07:30.000     41939.3619      6953.1361      -173.2308   2  16   0.0018   0.0009   0.0015  -0.0005  -0.0004  -0.0005   0.00    1.1
2021/01/01 02:08:00.000     41939.3619      6953.1366      -173.2317   2  16   0.0018   0.0009   0.0015  -0.0005  -0.0004  -0.0005   0.00    1.1
2021/01/01 02:08:30.000     41939.3617      6953.1371      -173.2327   2  16   0.0018   0.0009   0.0015  -0.0005  -0.0004  -0.0005   0.00    1.1
2021/01/01 02:09:00.000     41939.3615      6953.1376      -173.2336   2  15   0.0018   0.0009   0.0015  -0.0005  -0.0004  -0.0005   0.00    1.6
2021/01/01 02:09:30.000     41939.3614      6953.1380      -173.2345   2  16   0.0017   0.0009   0.0015  -0.0005  -0.0004  -0.0005   0.00    1.0
2021/01/01 02:10:00.000     41939.3613      6953.1383      -173.2353   2  16   0.0017   0.0009   0.0015  -0.0004  -0.0004  -0.0005   0.00    1.0
2021/01/01 02:10:30.000     41939.3614      6953.1385      -173.2359   2  16   0.0017   0.0009   0.0015  -0.0004  -0.0004  -0.0005   0.00    1.0
2021/01/01 02:11:00.000     41939.3616      6953.1385      -173.2364   2  16   0.0017   0.0009   0.0015  -0.0004  -0.0004  -0.0005   0.00    1.0
2021/01/01 02:11:30.000     41939.3619      6953.1383      -173.2368   2  16   0.0017   0.0009   0.0015  -0.0004  -0.0004  -0.0005   0.00    1.0
2021/01/01 02:12:00.000     41939.3623      6953.1381      -173.2371   2  16   0.0017   0.0008   0.0015  -0.0004  -0.0004  -0.0005   0.00    1.0
2021/01/01 02:12:30.000     41939.3626      6953.1378      -173.2374   2  16   0.0017   0.0008   0.0015  -0.0004  -0.0004  -0.0005   0.00    1.0
2021/01/01 02:13:00.000     41939.3629      6953.1375      -173.2378   2  16   0.0017   0.0008   0.0015  -0.0004  -0.0004  -0.0005   0.00    1.0
2021/01/01 02:13:30.000     41939.3633      6953.1372      -173.2380   2  16   0.0017   0.0008   0.0015  -0.0004  -0.0004  -0.0005   0.00    1.0
2021/01/01 02:14:00.000     41939.3637      6953.1369      -173.2383   2  16   0.0017   0.0008   0.0015  -0.0004  -0.0004  -0.0005   0.00    1.1
2021/01/01 02:14:30.000     41939.3639      6953.1366      -173.2387   2  16   0.0017   0.0008   0.0015  -0.0004  -0.0004  -0.0005   0.00    1.1
2021/01/01 02:15:00.000     41939.3642      6953.1363      -173.2391   2  16   0.0017   0.0008   0.0015  -0.0004  -0.0004  -0.0005   0.00    1.7
2021/01/01 02:15:30.000     41939.3645      6953.1359      -173.2396   2  16   0.0017   0.0008   0.0014  -0.0004  -0.0004  -0.0005   0.00    1.8
2021/01/01 02:16:00.000     41939.3649      6953.1355      -173.2400   2  16   0.0017   0.0008   0.0014  -0.0004  -0.0004  -0.0005   0.00    1.9
2021/01/01 02:16:30.000     41939.3652      6953.1351      -173.2405   2  16   0.0017   0.0008   0.0014  -0.0004  -0.0004  -0.0005   0.00    1.7
2021/01/01 02:17:00.000     41939.3654      6953.1346      -173.2409   2  16   0.0017   0.0008   0.0014  -0.0004  -0.0004  -0.0005   0.00    1.8
2021/01/01 02:17:30.000     41939.3657      6953.1340      -173.2412   2  17   0.0017   0.0008   0.0014  -0.0004  -0.0004  -0.0005   0.00    1.0
2021/01/01 02:18:00.000     41939.3659      6953.1334      -173.2414   2  17   0.0017   0.0008   0.0014  -0.0004  -0.0004  -0.0005   0.00    1.0
2021/01/01 02:18:30.000     41939.3661      6953.1328      -173.2416   2  17   0.0017   0.0008   0.0014  -0.0004  -0.0004  -0.0005   0.00    1.0
2021/01/01 02:19:00.000     41939.3664      6953.1321      -173.2418   2  17   0.0016   0.0008   0.0014  -0.0004  -0.0004  -0.0005   0.00    1.0
2021/01/01 02:19:30.000     41939.3666      6953.1314      -173.2421   2  17   0.0016   0.0008   0.0014  -0.0004  -0.0004  -0.0005   0.00    1.0
2021/01/01 02:20:00.000     41939.3669      6953.1307      -173.2423   2  17   0.0016   0.0008   0.0014  -0.0004  -0.0004  -0.0005   0.00    1.0
2021/01/01 02:20:30.000     41939.3671      6953.1300      -173.2426   2  17   0.0016   0.0008   0.0014  -0.0003  -0.0004  -0.0005   0.00    1.0
2021/01/01 02:21:00.000     41939.3673      6953.1293      -173.2428   2  17   0.0016   0.0008   0.0014  -0.0003  -0.0004  -0.0005   0.00    1.0
2021/01/01 02:21:30.000     41939.3676      6953.1287      -173.2429   2  17   0.0016   0.0008   0.0014  -0.0003  -0.0004  -0.0005   0.00    1.0
2021/01/01 02:22:00.000     41939.3678      6953.1280      -173.2432   2  16   0.0016   0.0008   0.0014  -0.0003  -0.0004  -0.0005   0.00    1.0
2021/01/01 02:22:30.000     41939.3681      6953.1274      -173.2435   2  16   0.0016   0.0008   0.0014  -0.0003  -0.0004  -0.0005   0.00    1.0
2021/01/01 02:23:00.000     41939.3683      6953.1267      -173.2436   2  16   0.0016   0.0008   0.0014  -0.0003  -0.0004  -0.0005   0.00    1.0
2021/01/01 02:23:30.000     41939.3685      6953.1261      -173.2436   2  16   0.0016   0.0008   0.0014  -0.0003  -0.0004  -0.0005   0.00    1.0
2021/01/01 02:24:00.000     41939.3687      6953.1254      -173.2434   2  16   0.0016   0.0008   0.0014  -0.0003  -0.0004  -0.0005   0.00    1.0
2021/01/01 02:24:30.000     41939.3690      6953.1247      -173.2433   2  16   0.0016   0.0008   0.0014  -0.0003  -0.0004  -0.0005   0.00    1.0
2021/01/01 02:25:00.000     41939.3693      6953.1240      -173.2430   2  16   0.0016   0.0008   0.0014  -0.0003  -0.0004  -0.0005   0.00    1.0
2021/01/01 02:25:30.000     41939.3697      6953.1233      -173.2428   2  16   0.0016   0.0008   0.0013  -0.0003  -0.0004  -0.0005   0.00    1.0
2021/01/01 02:26:00.000     41939.3701      6953.1226      -173.2425   2  16   0.0016   0.0008   0.0013  -0.0003  -0.0004  -0.0005   0.00    1.0
2021/01/01 02:26:30.000     41939.3706      6953.1218      -173.2422   2  16   0.0016   0.0008   0.0013  -0.0003  -0.0004  -0.0005   0.00    1.0
2021/01/01 02:27:00.000     41939.3709      6953.1211      -173.2419   2  16   0.0016   0.0008   0.0013  -0.0003  -0.0004  -0.0005   0.00    1.0
2021/01/01 02:27:30.000     41939.3713      6953.1204      -173.2416   2  17   0.0016   0.0008   0.0013  -0.0003  -0.0004  -0.0005   0.00    1.0
2021/01/01 02:28:00.000     41939.3716      6953.1198      -173.2411   2  17   0.0016   0.0008   0.0013  -0.0003  -0.0004  -0.0005   0.00    1.0
2021/01/01 02:28:30.000     41939.3718      6953.1193      -173.2407   2  17   0.0016   0.0008   0.0013  -0.0003  -0.0004  -0.0005   0.00    1.0
2021/01/01 02:29:00.000     41939.3720      6953.1189      -173.2402   2  17   0.0016   0.0008   0.0013  -0.0003  -0.0004  -0.0005   0.00    1.0
2021/01/01 02:29:30.000     41939.3720      6953.1186      -173.2396   2  17   0.0016   0.0007   0.0013  -0.0003  -0.0004  -0.0005   0.00    1.0
2021/01/01 02:30:00.000     41939.3720      6953.1184      -173.2390   2  17   0.0016   0.0007   0.0013  -0.0003  -0.0004  -0.0005   0.00    1.0
2021/01/01 02:30:30.000     41939.3719      6953.1183      -173.2385   2  17   0.0016   0.0007   0.0013  -0.0003  -0.0004  -0.0005   0.00    1.0
2021/01/01 02:31:00.000     41939.3718      6953.1183      -173.2378   2  17   0.0016   0.0007   0.0013  -0.0002  -0.0004  -0.0005   0.00    1.0
2021/01/01 02:31:30.000     41939.3716      6953.1183      -173.2372   2  17   0.0015   0.0007   0.0013  -0.0002  -0.0004  -0.0005   0.00    1.0
2021/01/01 02:32:00.000     41939.3714      6953.1184      -173.2366   2  17   0.0015   0.0007   0.0013  -0.0002  -0.0004  -0.0005   0.00    1.0
2021/01/01 02:32:30.000     41939.3711      6953.1185      -173.2360   2  17   0.0015   0.0007   0.0013  -0.0002  -0.0004  -0.0005   0.00    1.0
2021/01/01 02:33:00.000     41939.3709      6953.1186      -173.2354   2  17   0.0015   0.0007   0.0013  -0.0002  -0.0004  -0.0005   0.00    1.0
2021/01/01 02:33:30.000     41939.3705      6953.1188      -173.2349   2  17   0.0015   0.0007   0.0013  -0.0002  -0.0004  -0.0005   0.00    1.0
2021/01/01 02:34:00.000     41939.3702      6953.1189      -173.2343   2  17   0.0015   0.0007   0.0013  -0.0002  -0.0004  -0.0005   0.00    1.0
2021/01/01 02:34:30.000     41939.3700      6953.1190      -173.2337   2  17   0.0015   0.0007   0.0013  -0.0002  -0.0004  -0.0005   0.00    1.0
2021/01/01 02:35:00.000     41939.3698      6953.1190      -173.2330   2  17   0.0015   0.0007   0.0013  -0.0002  -0.0004  -0.0005   0.00    1.0
2021/01/01 02:35:30.000     41939.3695      6953.1190      -173.2323   2  17   0.0015   0.0007   0.0013  -0.0002  -0.0004  -0.0005   0.00    1.0
2021/01/01 02:36:00.000     41939.3693      6953.1190      -173.2315   2  17   0.0015   0.0007   0.0013  -0.0002  -0.0004  -0.0005   0.00    1.0
2021/01/01 02:36:30.000     41939.3689      6953.1190      -173.2307   2  17   0.0015   0.0007   0.0013  -0.0002  -0.0004  -0.0005   0.00    1.0
2021/01/01 02:37:00.000     41939.3686      6953.1190      -173.2297   2  17   0.0015   0.0007   0.0013  -0.0002  -0.0004  -0.0005   0.00    1.0
2021/01/01 02:37:30.000     41939.3683      6953.1191      -173.2288   2  17   0.0015   0.0007   0.0012  -0.0002  -0.0004  -0.0005   0.00    1.0
2021/01/01 02:38:00.000     41939.3679      6953.1191      -173.2277   2  17   0.0015   0.0007   0.0012  -0.0002  -0.0004  -0.0005   0.00    1.0
2021/01/01 02:38:30.000     41939.3675      6953.1192      -173.2267   2  17   0.0015   0.0007   0.0012  -0.0002  -0.0004  -0.0005   0.00    1.2
2021/01/01 02:39:00.000     41939.3671      6953.1193      -173.2257   2  17   0.0015   0.0007   0.0012  -0.0001  -0.0004  -0.0005   0.00    1.0
2021/01/01 02:39:30.000     41939.3666      6953.1194      -173.2246   2  17   0.0015   0.0007   0.0012  -0.0001  -0.0004  -0.0005   0.00    1.0
2021/01/01 02:40:00.000     41939.3662      6953.1196      -173.2235   2  17   0.0015   0.0007   0.0012  -0.0001  -0.0004  -0.0005   0.00    1.1
2021/01/01 02:40:30.000     41939.3657      6953.1197      -173.2224   2  17   0.0015   0.0007   0.0012  -0.0001  -0.0004  -0.0005   0.00    1.0
2021/01/01 02:41:00.000     41939.3651      6953.1198      -173.2214   2  17   0.0015   0.0007   0.0012  -0.0001  -0.0004  -0.0005   0.00    1.0
2021/01/01 02:41:30.000     41939.3645      6953.1199      -173.2204   2  17   0.0015   0.0007   0.0012  -0.0001  -0.0004  -0.0005   0.00    1.0
2021/01/01 02:42:00.000     41939.3639      6953.1201      -173.2194   2  17   0.0015   0.0007   0.0012  -0.0001  -0.0004  -0.0005   0.00    1.0
2021/01/01 02:42:30.000     41939.3633      6953.1202      -173.2184   2  17   0.0015   0.0007   0.0012  -0.0001  -0.0004  -0.0005   0.00    1.0
2021/01/01 02:43:00.000     41939.3627      6953.1203      -173.2174   2  17   0.0015   0.0007   0.0012  -0.0001  -0.0004  -0.0005   0.00    1.0
2021/01/01 02:43:30.000     41939.3620      6953.1205      -173.2163   2  17   0.0015   0.0007   0.0012  -0.0001  -0.0004  -0.0005   0.00    1.0
2021/01/01 02:44:00.000     41939.3613      6953.1207      -173.2152   2  17   0.0015   0.0007   0.0012  -0.0000  -0.0004  -0.0005   0.00    1.0
2021/01/01 02:44:30.000     41939.3605      6953.1209      -173.2142   2  17   0.0015   0.0007   0.0012   0.0000  -0.0004  -0.0005   0.00    1.0
2021/01/01 02:45:00.000     41939.3597      6953.1212      -173.2132   2  17   0.0015   0.0007   0.0012   0.0001  -0.0004  -0.0005   0.00    1.0
2021/01/01 02:45:30.000     41939.3589      6953.1215      -173.2122   2  17   0.0015   0.0007   0.0012   0.0001  -0.0004  -0.0005   0.00    1.0
2021/01/01 02:46:00.000     41939.3580      6953.1218      -173.2113   2  17   0.0015   0.0007   0.0012   0.0001  -0.0004  -0.0005   0.00    1.0
2021/01/01 02:46:30.000     41939.3571      6953.1221      -173.2104   2  17   0.0015   0.0007   0.0012   0.0001  -0.0004  -0.0005   0.00    1.0
2021/01/01 02:47:00.000     41939.3562      6953.1225      -173.2096   2  17   0.0015   0.0007   0.0012   0.0001  -0.0004  -0.0005   0.00    1.0
2021/01/01 02:47:30.000     41939.3553      6953.1229      -173.2088   2  17   0.0015   0.0007   0.0012   0.0001  -0.0004  -0.0005   0.00    1.1
2021/01/01 02:48:00.000     41939.3544      6953.1234      -173.2080   2  17   0.0014   0.0007   0.0012   0.0001  -0.0004  -0.0005   0.00    1.0
2021/01/01 02:48:30.000     41939.3536      6953.1238      -173.2073   2  17   0.0014   0.0007   0.0012   0.0001  -0.0004  -0.0005   0.00    1.0
2021/01/01 02:49:00.000     41939.3528      6953.1243      -173.2066   2  17   0.0014   0.0007   0.0012   0.0001  -0.0004  -0.0005   0.00    1.1
2021/01/01 02:49:30.000     41939.3520      6953.1248      -173.2059   2  17   0.0014   0.0007   0.0012   0.0001  -0.0004  -0.0005   0.00    1.0
2021/01/01 02:50:00.000     41939.3512      6953.1254      -173.2053   2  17   0.0014   0.0007   0.0012   0.0001  -0.0004  -0.0005   0.00    1.0
2021/01/01 02:50:30.000     41939.3504      6953.1260      -173.2047   2  17   0.0014   0.0007   0.0012   0.0002  -0.0004  -0.0005   0.00    1.0
2021/01/01 02:51:00.000     41939.3497      6953.1265      -173.2041   2  17   0.0014   0.0007   0.0012   0.0002  -0.0004  -0.0005   0.00    1.0
2021/01/01 02:51:30.000     41939.3490      6953.1271      -173.2035   2  17   0.0014   0.0007   0.0012   0.0002  -0.0004  -0.0005   0.00    1.0
2021/01/01 02:52:00.000     41939.3483      6953.1278      -173.2030   2  17   0.0014   0.0007   0.0012   0.0002  -0.0004  -0.0005   0.00    1.0
2021/01/01 02:52:30.000     41939.3477      6953.1284      -173.2025   2  17   0.0014   0.0006   0.0011   0.0002  -0.0004  -0.0005   0.00    1.0
2021/01/01 02:53:00.000     41939.3472      6953.1290      -173.2021   2  17   0.0014   0.0006   0.0011   0.0002  -0.0004  -0.0005   0.00    1.0
2021/01/01 02:53:30.000     41939.3466      6953.1296      -173.2017   2  17   0.0014   0.0006   0.0011   0.0002  -0.0004  -0.0005   0.00    1.0
2021/01/01 02:54:00.000     41939.3461      6953.1302      -173.2013   2  17   0.0014   0.0006   0.0011   0.0002  -0.0004  -0.0005   0.00    1.0
2021/01/01 02:54:30.000     41939.3458      6953.1307      -173.2009   2  17   0.0014   0.0006   0.0011   0.0002  -0.0004  -0.0005   0.00    1.0
2021/01/01 02:55:00.000     41939.3454      6953.1312      -173.2006   2  18   0.0014   0.0006   0.0011   0.0002  -0.0004  -0.0005   0.00    1.0
2021/01/01 02:55:30.000     41939.3451      6953.1317      -173.2002   2  18   0.0014   0.0006   0.0011   0.0002  -0.0004  -0.0005   0.00    1.0
2021/01/01 02:56:00.000     41939.3448      6953.1323      -173.1999   2  18   0.0014   0.0006   0.0011   0.0002  -0.0004  -0.0005   0.00    1.0
2021/01/01 02:56:30.000     41939.3445      6953.1328      -173.1997   2  18   0.0014   0.0006   0.0011   0.0002  -0.0004  -0.0005   0.00    1.0
2021/01/01 02:57:00.000     41939.3442      6953.1333      -173.1994   2  18   0.0014   0.0006   0.0011   0.0002  -0.0004  -0.0005   0.00    1.0
2021/01/01 02:57:30.000     41939.3440      6953.1337      -173.1992   2  18   0.0014   0.0006   0.0011   0.0002  -0.0004  -0.0005   0.00    1.0
2021/01/01 02:58:00.000     41939.3438      6953.1342      -173.1991   2  18   0.0014   0.0006   0.0011   0.0002  -0.0004  -0.0005   0.00    1.0
2021/01/01 02:58:30.000     41939.3436      6953.1347      -173.1989   2  18   0.0014   0.0006   0.0011   0.0002  -0.0004  -0.0005   0.00    1.0
2021/01/01 02:59:00.000     41939.3435      6953.1351      -173.1988   2  18   0.0014   0.0006   0.0011   0.0002  -0.0004  -0.0005   0.00    1.0
2021/01/01 02:59:30.000     41939.3434      6953.1354      -173.1986   2  18   0.0014   0.0006   0.0011   0.0002  -0.0004  -0.0005   0.00    1.0
2021/01/01 03:00:00.000     41939.3433      6953.1358      -173.1984   2  18   0.0014   0.0006   0.0011   0.0002  -0.0004  -0.0005   0.00    1.0
2021/01/01 03:00:30.000     41939.3432      6953.1362      -173.1983   2  18   0.0014   0.0006   0.0011   0.0002  -0.0004  -0.0005   0.00    1.0
2021/01/01 03:01:00.000     41939.3431      6953.1365      -173.1980   2  18   0.0014   0.0006   0.0011   0.0002  -0.0004  -0.0005   0.00    1.0
2021/01/01 03:01:30.000     41939.3431      6953.1369      -173.1978   2  18   0.0014   0.0006   0.0011   0.0002  -0.0004  -0.0005   0.00    1.0
2021/01/01 03:02:00.000     41939.3431      6953.1372      -173.1975   2  18   0.0014   0.0006   0.0011   0.0002  -0.0004  -0.0005   0.00    1.0
2021/01/01 03:02:30.000     41939.3432      6953.1376      -173.1972   2  18   0.0014   0.0006   0.0011   0.0002  -0.0004  -0.0005   0.00    1.0
2021/01/01 03:03:00.000     41939.3433      6953.1380      -173.1969   2  18   0.0014   0.0006   0.0011   0.0002  -0.0004  -0.0005   0.00    1.0
2021/01/01 03:03:30.000     41939.3434      6953.1384      -173.1966   2  18   0.0014   0.0006   0.0011   0.0002  -0.0004  -0.0005   0.00    1.0
2021/01/01 03:04:00.000     41939.3436      6953.1388      -173.1964   2  18   0.0014   0.0006   0.0011   0.0002  -0.0004  -0.0005   0.00    1.0
2021/01/01 03:04:30.000     41939.3437      6953.1391      -173.1961   2  18   0.0014   0.0006   0.0011   0.0003  -0.0004  -0.0005   0.00    1.0
2021/01/01 03:05:00.000     41939.3439      6953.1395      -173.1958   2  18   0.0014   0.0006   0.0011   0.0003  -0.0004  -0.0005   0.00    1.0
2021/01/01 03:05:30.000     41939.3440      6953.1398      -173.1956   2  17   0.0014   0.0006   0.0011   0.0003  -0.0004  -0.0005   0.00    1.0
2021/01/01 03:06:00.000     41939.3441      6953.1401      -173.1954   2  17   0.0014   0.0006   0.0011   0.0003  -0.0004  -0.0005   0.00    1.0
2021/01/01 03:06:30.000     41939.3441      6953.1404      -173.1952   2  17   0.0014   0.0006   0.0011   0.0003  -0.0004  -0.0005   0.00    1.0
2021/01/01 03:07:00.000     41939.3442      6953.1407      -173.1949   2  17   0.0014   0.0006   0.0011   0.0003  -0.0004  -0.0005   0.00    1.0
2021/01/01 03:07:30.000     41939.3442      6953.1410      -173.1946   2  17   0.0014   0.0006   0.0011   0.0003  -0.0004  -0.0005   0.00    1.0
2021/01/01 03:08:00.000     41939.3443      6953.1413      -173.1943   2  17   0.0014   0.0006   0.0011   0.0003  -0.0004  -0.0005   0.00    1.0
2021/01/01 03:08:30.000     41939.3444      6953.1417      -173.1940   2  17   0.0014   0.0006   0.0011   0.0003  -0.0004  -0.0005   0.00    1.0
2021/01/01 03:09:00.000     41939.3445      6953.1420      -173.1938   2  17   0.0014   0.0006   0.0011   0.0003  -0.0004  -0.0005   0.00    1.0
2021/01/01 03:09:30.000     41939.3446      6953.1424      -173.1935   2  17   0.0013   0.0006   0.0011   0.0003  -0.0004  -0.0005   0.00    1.0
2021/01/01 03:10:00.000     41939.3447      6953.1428      -173.1932   2  17   0.0013   0.0006   0.0011   0.0003  -0.0004  -0.0005   0.00    1.0
2021/01/01 03:10:30.000     41939.3449      6953.1431      -173.1929   2  17   0.0013   0.0006   0.0011   0.0003  -0.0004  -0.0005   0.00    1.0
2021/01/01 03:11:00.000     41939.3450      6953.1435      -173.1926   2  17   0.0013   0.0006   0.0011   0.0003  -0.0004  -0.0005   0.00    1.0
2021/01/01 03:11:30.000     41939.3452      6953.1439      -173.1923   2  16   0.0013   0.0006   0.0010   0.0003  -0.0004  -0.0005   0.00    1.0
2021/01/01 03:12:00.000     41939.3454      6953.1442      -173.1920   2  17   0.0013   0.0006   0.0010   0.0003  -0.0004  -0.0005   0.00    1.0
2021/01/01 03:12:30.000     41939.3455      6953.1444      -173.1918   2  17   0.0013   0.0006   0.0010   0.0003  -0.0004  -0.0005   0.00    1.0
2021/01/01 03:13:00.000     41939.3456      6953.1446      -173.1916   2  17   0.0013   0.0006   0.0010   0.0003  -0.0003  -0.0005   0.00    1.0
2021/01/01 03:13:30.000     41939.3459      6953.1448      -173.1917   2  16   0.0013   0.0006   0.0010   0.0003  -0.0003  -0.0005   0.00    1.0
2021/01/01 03:14:00.000     41939.3461      6953.1449      -173.1917   2  15   0.0013   0.0006   0.0010   0.0003  -0.0003  -0.0005   0.00    1.0
2021/01/01 03:14:30.000     41939.3464      6953.1451      -173.1918   2  15   0.0013   0.0006   0.0010   0.0003  -0.0003  -0.0005   0.00    1.0
2021/01/01 03:15:00.000     41939.3466      6953.1453      -173.1918   2  15   0.0013   0.0006   0.0010   0.0003  -0.0003  -0.0005   0.00    1.0
2021/01/01 03:15:30.000     41939.3468      6953.1454      -173.1919   2  15   0.0013   0.0006   0.0010   0.0003  -0.0003  -0.0005   0.00    1.0
2021/01/01 03:16:00.000     41939.3471      6953.1456      -173.1919   2  15   0.0013   0.0006   0.0010   0.0003  -0.0003  -0.0005   0.00    1.0
2021/01/01 03:16:30.000     41939.3473      6953.1457      -173.1920   2  15   0.0013   0.0006   0.0010   0.0003  -0.0003  -0.0005   0.00    1.0
2021/01/01 03:17:00.000     41939.3476      6953.1459      -173.1922   2  15   0.0013   0.0006   0.0010   0.0003  -0.0003  -0.0005   0.00    1.0
2021/01/01 03:17:30.000     41939.3479      6953.1460      -173.1923   2  15   0.0013   0.0006   0.0010   0.0003  -0.0003  -0.0005   0.00    1.0
2021/01/01 03:18:00.000     41939.3482      6953.1461      -173.1925   2  15   0.0013   0.0006   0.0010   0.0003  -0.0003  -0.0005   0.00    1.0
2021/01/01 03:18:30.000     41939.3485      6953.1462      -173.1926   2  15   0.0013   0.0006   0.0010   0.0003  -0.0003  -0.0005   0.00    1.0
2021/01/01 03:19:00.000     41939.3488      6953.1464      -173.1928   2  15   0.0013   0.0006   0.0010   0.0003  -0.0003  -0.0005   0.00    1.0
2021/01/01 03:19:30.000     41939.3491      6953.1465      -173.1930   2  15   0.0013   0.0006   0.0010   0.0003  -0.0003  -0.0005   0.00    1.0
2021/01/01 03:20:00.000     41939.3494      6953.1466      -173.1931   2  15   0.0013   0.0006   0.0010   0.0003  -0.0003  -0.0005   0.00    1.1
2021/01/01 03:20:30.000     41939.3498      6953.1467      -173.1933   2  15   0.0013   0.0006   0.0010   0.0003  -0.0003  -0.0005   0.00    1.0
2021/01/01 03:21:00.000     41939.3502      6953.1468      -173.1934   2  15   0.0013   0.0006   0.0010   0.0003  -0.0003  -0.0005   0.00    1.0
2021/01/01 03:21:30.000     41939.3505      6953.1469      -173.1935   2  15   0.0013   0.0006   0.0010   0.0003  -0.0003  -0.0005   0.00    1.0
2021/01/01 03:22:00.000     41939.3509      6953.1470      -173.1936   2  15   0.0013   0.0006   0.0010   0.0003  -0.0003  -0.0005   0.00    1.0
2021/01/01 03:22:30.000     41939.3513      6953.1472      -173.1937   2  15   0.0013   0.0006   0.0010   0.0003  -0.0003  -0.0005   0.00    1.0
2021/01/01 03:23:00.000     41939.3517      6953.1473      -173.1938   2  15   0.0013   0.0006   0.0010   0.0003  -0.0003  -0.0005   0.00    1.0
